time(second),Year,Month,Day,Hour,Minute,Second,latitude,longitude,height_above_takeoff(meters),height_above_ground_at_drone_location(meters),ground_elevation_at_drone_location(meters),altitude_above_seaLevel(meters),height_sonar(meters),speed(mps),distance(meters),mileage(meters),altitude(meters),xSpeed(mps),ySpeed(mps),zSpeed(mps),ascent(meters),flycStateRaw,isPhoto,isVideo,height_velocity_integration(meter),height_correction(meter)
0.0,2024.0,11.0,30.0,11.0,44.0,58.0,46.341162,-119.264822,0.4,0.4,105.5157471,105.9157471,0.5,0.4,0.0,0.0,105.9157471,0.0,0.0,-0.4,0.4,11.0,0.0,0.0,0.0,0.0
0.10000000000000009,2024.0,11.0,30.0,11.0,44.0,58.0,46.341162,-119.264822,0.5,0.5,105.5157471,106.0157471,0.5,0.4,0.0,0.0,106.0157471,0.0,0.0,-0.4,0.5,11.0,0.0,0.0,0.040000000000000036,0.0
0.19999999999999996,2024.0,11.0,30.0,11.0,44.0,58.0,46.341162,-119.264822,0.5,0.5,105.5157471,106.0157471,0.6,0.4,0.0,0.0,106.0157471,0.0,0.0,-0.4,0.5,11.0,0.0,0.0,0.07999999999999999,0.0
0.30000000000000004,2024.0,11.0,30.0,11.0,44.0,58.0,46.341162,-119.264822,0.6,0.6,105.5157471,106.1157471,0.6,0.4,0.0,0.0,106.1157471,0.0,0.0,-0.4,0.6,11.0,0.0,0.0,0.12000000000000002,0.0
0.3999999999999999,2024.0,11.0,30.0,11.0,44.0,58.0,46.341162,-119.264822,0.6,0.6,105.5157471,106.1157471,0.7,0.4,0.0,0.0,106.1157471,0.0,0.0,-0.4,0.6,11.0,0.0,0.0,0.15999999999999998,0.0
0.5,2024.0,11.0,30.0,11.0,44.0,58.0,46.341162,-119.264822,0.7,0.7,105.5157471,106.2157471,0.7,0.4,0.0,0.0,106.2157471,0.0,0.0,-0.4,0.7,11.0,0.0,0.0,0.2,0.0
0.6000000000000001,2024.0,11.0,30.0,11.0,44.0,58.0,46.341162,-119.264822,0.7,0.7,105.5157471,106.2157471,0.8,0.5,0.0,0.0,106.2157471,0.0,0.0,-0.5,0.7,11.0,0.0,1.0,0.24500000000000005,0.0
0.7000000000000002,2024.0,11.0,30.0,11.0,44.0,58.0,46.341162,-119.264822,0.8,0.8,105.5157471,106.3157471,0.8,0.5,0.0,0.0,106.3157471,0.0,0.0,-0.5,0.8,11.0,0.0,1.0,0.2950000000000001,0.0
0.8,2024.0,11.0,30.0,11.0,44.0,58.0,46.341162,-119.264822,0.8,0.8,105.5157471,106.3157471,0.9,0.5,0.0,0.0,106.3157471,0.0,0.0,-0.5,0.8,11.0,0.0,1.0,0.34500000000000003,0.0
0.8999999999999999,2024.0,11.0,30.0,11.0,44.0,58.0,46.341162,-119.264822,0.9,0.9,105.5157471,106.4157471,0.9,0.4,0.0,0.0,106.4157471,0.0,0.0,-0.4,0.9,11.0,0.0,1.0,0.38999999999999996,0.0
1.0,2024.0,11.0,30.0,11.0,44.0,59.0,46.341162,-119.264822,0.9,0.9,105.5157471,106.4157471,1.0,0.4,0.0,0.0,106.4157471,0.0,0.0,-0.4,0.9,11.0,0.0,1.0,0.43,0.0
1.1,2024.0,11.0,30.0,11.0,44.0,59.0,46.341162,-119.264822,1.0,1.0,105.5157471,106.5157471,1.0,0.4,0.0,0.0,106.5157471,0.0,0.0,-0.4,1.0,11.0,0.0,1.0,0.47000000000000003,0.0
1.2000000000000002,2024.0,11.0,30.0,11.0,44.0,59.0,46.341162,-119.264822,1.0,1.0,105.5157471,106.5157471,1.1,0.4,0.0,0.0,106.5157471,0.0,0.0,-0.4,1.0,11.0,0.0,1.0,0.51,0.0
1.2999999999999998,2024.0,11.0,30.0,11.0,44.0,59.0,46.341162,-119.264822,1.1,1.1,105.5157471,106.6157471,1.1,0.4,0.0,0.0,106.6157471,0.0,0.0,-0.4,1.1,6.0,0.0,1.0,0.5499999999999998,0.0
1.4,2024.0,11.0,30.0,11.0,44.0,59.0,46.341162,-119.264822,1.1,1.1,105.5157471,106.6157471,1.1,0.2,0.0,0.0,106.6157471,0.0,0.0,-0.2,1.1,6.0,0.0,1.0,0.5799999999999998,0.0
1.5,2024.0,11.0,30.0,11.0,44.0,59.0,46.341162,-119.264822,1.1,1.1,105.5157471,106.6157471,1.2,0.1,0.0,0.0,106.6157471,0.0,0.0,-0.1,1.1,17.0,0.0,1.0,0.5949999999999999,0.0
1.6,2024.0,11.0,30.0,11.0,44.0,59.0,46.341162,-119.264822,1.1,1.1,105.5157471,106.6157471,1.2,0.0,0.0,0.0,106.6157471,0.0,0.0,0.0,1.1,17.0,0.0,1.0,0.5999999999999999,0.0
1.7000000000000002,2024.0,11.0,30.0,11.0,44.0,59.0,46.341162,-119.264822,1.2,1.2,105.5157471,106.7157471,1.2,0.0,0.0,0.0,106.7157471,0.0,0.0,0.0,1.2,17.0,0.0,1.0,0.5999999999999999,0.0
1.7999999999999998,2024.0,11.0,30.0,11.0,44.0,59.0,46.341162,-119.264822,1.2,1.2,105.5157471,106.7157471,1.2,0.1,0.0,0.0,106.7157471,0.0,0.0,-0.1,1.2,17.0,0.0,1.0,0.6049999999999999,0.0
1.9,2024.0,11.0,30.0,11.0,44.0,59.0,46.341162,-119.264822,1.2,1.2,105.5157471,106.7157471,1.2,0.2,0.0,0.0,106.7157471,0.0,0.0,-0.2,1.2,17.0,0.0,1.0,0.6199999999999999,0.0
2.0,2024.0,11.0,30.0,11.0,45.0,0.0,46.341162,-119.264822,1.2,1.2,105.5157471,106.7157471,1.2,0.3,0.0,0.0,106.7157471,0.0,0.0,-0.3,1.2,17.0,0.0,1.0,0.6449999999999999,0.0
2.1,2024.0,11.0,30.0,11.0,45.0,0.0,46.341162,-119.264822,1.3,1.3,105.5157471,106.8157471,1.3,0.4,0.0,0.0,106.8157471,0.0,0.0,-0.4,1.3,17.0,0.0,1.0,0.6799999999999999,0.0
2.2,2024.0,11.0,30.0,11.0,45.0,0.0,46.341162,-119.264822,1.3,1.3,105.5157471,106.8157471,1.3,0.5,0.0,0.0,106.8157471,0.0,0.0,-0.5,1.3,17.0,0.0,1.0,0.725,0.0
2.3,2024.0,11.0,30.0,11.0,45.0,0.0,46.341162,-119.264822,1.4,1.4,105.5157471,106.9157471,1.4,0.5,0.0,0.0,106.9157471,0.0,0.0,-0.5,1.4,17.0,0.0,1.0,0.7749999999999998,0.0
2.4,2024.0,11.0,30.0,11.0,45.0,0.0,46.341162,-119.264822,1.4,1.4,105.5157471,106.9157471,1.4,0.4,0.0,0.0,106.9157471,0.0,0.0,-0.4,1.4,17.0,0.0,1.0,0.8199999999999998,0.0
2.5,2024.0,11.0,30.0,11.0,45.0,0.0,46.341162,-119.264822,1.4,1.4,105.5157471,106.9157471,1.5,0.3,0.0,0.0,106.9157471,0.0,0.0,-0.3,1.4,17.0,0.0,1.0,0.8549999999999999,0.0
2.6,2024.0,11.0,30.0,11.0,45.0,0.0,46.341162,-119.264822,1.5,1.5,105.5157471,107.0157471,1.5,0.2,0.0,0.0,107.0157471,0.0,0.0,-0.2,1.5,17.0,0.0,1.0,0.8799999999999999,0.0
2.7,2024.0,11.0,30.0,11.0,45.0,0.0,46.341162,-119.264822,1.5,1.5,105.5157471,107.0157471,1.5,0.1,0.0,0.0,107.0157471,0.0,0.0,-0.1,1.5,17.0,0.0,1.0,0.8949999999999999,0.0
2.8,2024.0,11.0,30.0,11.0,45.0,0.0,46.341162,-119.264823,1.5,1.49,105.5257471,107.0157471,1.5,0.1,0.0767726,0.0767726,107.0157471,0.0,0.0,-0.1,1.5,17.0,0.0,1.0,0.9049999999999999,0.0
2.9,2024.0,11.0,30.0,11.0,45.0,0.0,46.341162,-119.264823,1.5,1.49,105.5257471,107.0157471,1.5,0.141,0.0767726,0.0767726,107.0157471,-0.1,0.1,0.0,1.5,17.0,0.0,1.0,0.9099999999999999,0.0
3.0,2024.0,11.0,30.0,11.0,45.0,1.0,46.341162,-119.264822,1.5,1.5,105.5157471,107.0157471,1.5,0.224,0.0,0.153545,107.0157471,-0.1,0.2,0.0,1.5,17.0,0.0,1.0,0.9099999999999999,0.0
3.0999999999999996,2024.0,11.0,30.0,11.0,45.0,1.0,46.341162,-119.264822,1.5,1.5,105.5157471,107.0157471,1.5,0.361,0.0,0.153545,107.0157471,-0.2,0.3,0.0,1.5,17.0,0.0,1.0,0.9099999999999999,0.0
3.2,2024.0,11.0,30.0,11.0,45.0,1.0,46.341161,-119.264821,1.5,1.5,105.5157471,107.0157471,1.5,0.5,0.135133,0.288678,107.0157471,-0.3,0.4,0.0,1.5,17.0,0.0,1.0,0.9099999999999999,0.0
3.3,2024.0,11.0,30.0,11.0,45.0,1.0,46.341161,-119.264821,1.5,1.5,105.5157471,107.0157471,1.5,0.64,0.135133,0.288678,107.0157471,-0.4,0.5,0.0,1.5,17.0,0.0,1.0,0.9099999999999999,0.0
3.4000000000000004,2024.0,11.0,30.0,11.0,45.0,1.0,46.341161,-119.26482,1.5,1.51,105.5057471,107.0157471,1.5,0.781,0.189586,0.36545,107.0157471,-0.5,0.6,0.0,1.5,17.0,0.0,1.0,0.9099999999999999,0.0
3.5,2024.0,11.0,30.0,11.0,45.0,1.0,46.34116,-119.264819,1.5,1.52,105.4957471,107.0157471,1.5,0.922,0.320177,0.500583,107.0157471,-0.6,0.7,0.0,1.5,17.0,0.0,1.0,0.9099999999999999,0.0
3.5999999999999996,2024.0,11.0,30.0,11.0,45.0,1.0,46.34116,-119.264818,1.5,1.52,105.4957471,107.0157471,1.5,1.063,0.379172,0.577355,107.0157471,-0.7,0.8,0.0,1.5,17.0,0.0,1.0,0.9099999999999999,0.0
3.7,2024.0,11.0,30.0,11.0,45.0,1.0,46.341159,-119.264817,1.5,1.53,105.4857471,107.0157471,1.5,1.204,0.508578,0.712488,107.0157471,-0.8,0.9,0.0,1.5,17.0,0.0,1.0,0.9099999999999999,0.0
3.8,2024.0,11.0,30.0,11.0,45.0,1.0,46.341159,-119.264816,1.5,1.53,105.4857471,107.0157471,1.6,1.345,0.568758,0.789261,107.0157471,-0.9,1.0,0.0,1.5,17.0,0.0,1.0,0.9099999999999999,0.0
3.9000000000000004,2024.0,11.0,30.0,11.0,45.0,1.0,46.341158,-119.264815,1.5,1.54,105.4757471,107.0157471,1.6,1.556,0.697622,0.924393,107.0157471,-1.1,1.1,0.0,1.5,17.0,0.0,1.0,0.9099999999999999,0.0
4.0,2024.0,11.0,30.0,11.0,45.0,2.0,46.341157,-119.264813,1.5,1.55,105.4657471,107.0157471,1.6,1.697,0.886897,1.11398,107.0157471,-1.2,1.2,0.0,1.5,17.0,0.0,1.0,0.9099999999999999,0.0
4.1,2024.0,11.0,30.0,11.0,45.0,2.0,46.341156,-119.264812,1.5,1.56,105.4557471,107.0157471,1.6,1.838,1.01716,1.24911,107.0157471,-1.3,1.3,0.0,1.5,17.0,0.0,1.0,0.9099999999999999,0.0
4.2,2024.0,11.0,30.0,11.0,45.0,2.0,46.341155,-119.26481,1.5,1.57,105.4457471,107.0157471,1.6,1.98,1.20611,1.4387,107.0157471,-1.4,1.4,0.0,1.5,17.0,0.0,1.0,0.9099999999999999,0.0
4.3,2024.0,11.0,30.0,11.0,45.0,2.0,46.341153,-119.264808,1.4,1.48,105.4357471,106.9157471,1.7,2.052,1.46865,1.70896,106.9157471,-1.4,1.5,0.0,1.4,17.0,0.0,1.0,0.9099999999999999,0.0
4.4,2024.0,11.0,30.0,11.0,45.0,2.0,46.341152,-119.264806,1.4,1.49,105.4257471,106.9157471,1.7,2.193,1.65697,1.89855,106.9157471,-1.5,1.6,0.0,1.4,17.0,0.0,1.0,0.9099999999999999,0.0
4.5,2024.0,11.0,30.0,11.0,45.0,2.0,46.341151,-119.264804,1.4,1.5,105.4157471,106.9157471,1.7,2.193,1.84555,2.08814,106.9157471,-1.5,1.6,0.0,1.4,17.0,0.0,1.0,0.9099999999999999,0.0
4.6,2024.0,11.0,30.0,11.0,45.0,2.0,46.341149,-119.264802,1.4,1.52,105.3957471,106.9157471,1.7,2.263,2.10893,2.3584,106.9157471,-1.6,1.6,0.0,1.4,17.0,0.0,1.0,0.9099999999999999,0.0
4.7,2024.0,11.0,30.0,11.0,45.0,2.0,46.341148,-119.2648,1.4,1.53,105.3857471,106.9157471,1.7,2.263,2.29709,2.54799,106.9157471,-1.6,1.6,0.0,1.4,17.0,0.0,1.0,0.9099999999999999,0.0
4.8,2024.0,11.0,30.0,11.0,45.0,2.0,46.341146,-119.264798,1.4,1.54,105.3757471,106.9157471,1.7,2.263,2.56142,2.81825,106.9157471,-1.6,1.6,0.0,1.4,17.0,0.0,1.0,0.9099999999999999,0.0
4.9,2024.0,11.0,30.0,11.0,45.0,2.0,46.341145,-119.264796,1.4,1.55,105.3657471,106.9157471,1.7,2.263,2.74925,3.00784,106.9157471,-1.6,1.6,0.0,1.4,17.0,0.0,1.0,0.9099999999999999,0.0
5.0,2024.0,11.0,30.0,11.0,45.0,3.0,46.341143,-119.264794,1.4,1.57,105.3457471,106.9157471,1.8,2.263,3.01419,3.2781,106.9157471,-1.6,1.6,0.0,1.4,17.0,0.0,1.0,0.9099999999999999,0.0
5.1,2024.0,11.0,30.0,11.0,45.0,3.0,46.341142,-119.264792,1.4,1.58,105.3357471,106.9157471,1.8,2.263,3.20177,3.46769,106.9157471,-1.6,1.6,0.0,1.4,17.0,0.0,1.0,0.9099999999999999,0.0
5.2,2024.0,11.0,30.0,11.0,45.0,3.0,46.34114,-119.264789,1.4,1.6,105.3157471,106.9157471,1.8,2.263,3.52195,3.78787,106.9157471,-1.6,1.6,0.0,1.4,17.0,0.0,1.0,0.9099999999999999,0.0
5.3,2024.0,11.0,30.0,11.0,45.0,3.0,46.341139,-119.264787,1.4,1.61,105.3057471,106.9157471,1.8,2.121,3.70975,3.97745,106.9157471,-1.5,1.5,0.0,1.4,17.0,0.0,1.0,0.9099999999999999,0.0
5.4,2024.0,11.0,30.0,11.0,45.0,3.0,46.341138,-119.264785,1.4,1.62,105.2957471,106.9157471,1.8,2.052,3.89772,4.16704,106.9157471,-1.5,1.4,0.0,1.4,17.0,0.0,1.0,0.9099999999999999,0.0
5.5,2024.0,11.0,30.0,11.0,45.0,3.0,46.341136,-119.264783,1.4,1.63,105.2857471,106.9157471,1.8,1.98,4.1623,4.4373,106.9157471,-1.4,1.4,0.0,1.4,17.0,0.0,1.0,0.9099999999999999,0.0
5.6,2024.0,11.0,30.0,11.0,45.0,3.0,46.341135,-119.264781,1.4,1.64,105.2757471,106.9157471,1.8,1.838,4.35009,4.62689,106.9157471,-1.3,1.3,0.0,1.4,17.0,0.0,1.0,0.9099999999999999,0.0
5.7,2024.0,11.0,30.0,11.0,45.0,3.0,46.341134,-119.26478,1.4,1.65,105.2657471,106.9157471,1.9,1.697,4.48248,4.76202,106.9157471,-1.2,1.2,0.0,1.4,17.0,0.0,1.0,0.9099999999999999,0.0
5.8,2024.0,11.0,30.0,11.0,45.0,3.0,46.341132,-119.264778,1.4,1.66,105.2557471,106.9157471,1.8,1.697,4.74773,5.03229,106.9157471,-1.2,1.2,0.0,1.4,17.0,0.0,1.0,0.9099999999999999,0.0
5.9,2024.0,11.0,30.0,11.0,45.0,3.0,46.341131,-119.264776,1.4,1.67,105.2457471,106.9157471,1.8,1.556,4.93521,5.22187,106.9157471,-1.1,1.1,0.0,1.4,17.0,0.0,1.0,0.9099999999999999,0.0
6.0,2024.0,11.0,30.0,11.0,45.0,4.0,46.34113,-119.264775,1.4,1.68,105.2357471,106.9157471,1.8,1.414,5.06789,5.35701,106.9157471,-1.0,1.0,0.0,1.4,17.0,0.0,1.0,0.9099999999999999,0.0
6.1,2024.0,11.0,30.0,11.0,45.0,4.0,46.341129,-119.264773,1.4,1.69,105.2257471,106.9157471,1.9,1.273,5.25538,5.54659,106.9157471,-0.9,0.9,0.0,1.4,17.0,0.0,1.0,0.9099999999999999,0.0
6.2,2024.0,11.0,30.0,11.0,45.0,4.0,46.341128,-119.264772,1.4,1.7,105.2157471,106.9157471,1.9,1.131,5.38805,5.68173,106.9157471,-0.8,0.8,0.0,1.4,17.0,0.0,1.0,0.9099999999999999,0.0
6.3,2024.0,11.0,30.0,11.0,45.0,4.0,46.341128,-119.264771,1.4,1.7,105.2157471,106.9157471,1.9,0.99,5.44301,5.7585,106.9157471,-0.7,0.7,0.0,1.4,17.0,0.0,1.0,0.9099999999999999,0.0
6.4,2024.0,11.0,30.0,11.0,45.0,4.0,46.341127,-119.26477,1.4,1.71,105.2057471,106.9157471,1.9,0.849,5.57555,5.89363,106.9157471,-0.6,0.6,0.0,1.4,17.0,0.0,1.0,0.9099999999999999,0.0
6.5,2024.0,11.0,30.0,11.0,45.0,4.0,46.341126,-119.264769,1.4,1.72,105.1957471,106.9157471,1.9,0.64,5.70821,6.02876,106.9157471,-0.4,0.5,0.0,1.4,17.0,0.0,1.0,0.9099999999999999,0.0
6.6,2024.0,11.0,30.0,11.0,45.0,4.0,46.341126,-119.264768,1.4,1.72,105.1957471,106.9157471,1.9,0.5,5.76319,6.10554,106.9157471,-0.3,0.4,0.0,1.4,17.0,0.0,1.0,0.9099999999999999,0.0
6.7,2024.0,11.0,30.0,11.0,45.0,4.0,46.341125,-119.264768,1.4,1.73,105.1857471,106.9157471,1.9,0.361,5.84099,6.21674,106.9157471,-0.2,0.3,0.0,1.4,17.0,0.0,1.0,0.9099999999999999,0.0
6.8,2024.0,11.0,30.0,11.0,45.0,4.0,46.341125,-119.264767,1.4,1.73,105.1857471,106.9157471,1.9,0.224,5.89573,6.29352,106.9157471,-0.1,0.2,0.0,1.4,17.0,0.0,1.0,0.9099999999999999,0.0
6.9,2024.0,11.0,30.0,11.0,45.0,4.0,46.341125,-119.264767,1.4,1.73,105.1857471,106.9157471,1.9,0.1,5.89573,6.29352,106.9157471,0.0,0.1,0.0,1.4,17.0,0.0,1.0,0.9099999999999999,0.0
7.0,2024.0,11.0,30.0,11.0,45.0,5.0,46.341125,-119.264767,1.4,1.73,105.1857471,106.9157471,1.9,0.0,5.89573,6.29352,106.9157471,0.0,0.0,0.0,1.4,17.0,0.0,1.0,0.9099999999999999,0.0
7.1,2024.0,11.0,30.0,11.0,45.0,5.0,46.341125,-119.264766,1.4,1.73,105.1857471,106.9157471,1.9,0.0,5.95095,6.37029,106.9157471,0.0,0.0,0.0,1.4,17.0,0.0,1.0,0.9099999999999999,0.0
7.199999999999999,2024.0,11.0,30.0,11.0,45.0,5.0,46.341125,-119.264766,1.4,1.73,105.1857471,106.9157471,1.9,0.141,5.95095,6.37029,106.9157471,0.1,-0.1,0.0,1.4,17.0,0.0,1.0,0.9099999999999999,0.0
7.300000000000001,2024.0,11.0,30.0,11.0,45.0,5.0,46.341125,-119.264767,1.4,1.73,105.1857471,106.9157471,1.9,0.283,5.89573,6.44706,106.9157471,0.2,-0.2,0.0,1.4,17.0,0.0,1.0,0.9099999999999999,0.0
7.4,2024.0,11.0,30.0,11.0,45.0,5.0,46.341125,-119.264767,1.4,1.73,105.1857471,106.9157471,1.9,0.283,5.89573,6.44706,106.9157471,0.2,-0.2,0.0,1.4,17.0,0.0,1.0,0.9099999999999999,0.0
7.5,2024.0,11.0,30.0,11.0,45.0,5.0,46.341125,-119.264767,1.4,1.73,105.1857471,106.9157471,1.9,0.361,5.89573,6.44706,106.9157471,0.3,-0.2,0.0,1.4,17.0,0.0,1.0,0.9099999999999999,0.0
7.6,2024.0,11.0,30.0,11.0,45.0,5.0,46.341126,-119.264767,1.4,1.73,105.1857471,106.9157471,1.9,0.424,5.81866,6.55827,106.9157471,0.3,-0.3,0.0,1.4,17.0,0.0,1.0,0.9099999999999999,0.0
7.699999999999999,2024.0,11.0,30.0,11.0,45.0,5.0,46.341126,-119.264768,1.4,1.72,105.1957471,106.9157471,1.8,0.424,5.76319,6.63504,106.9157471,0.3,-0.3,0.0,1.4,17.0,0.0,1.0,0.9099999999999999,0.0
7.800000000000001,2024.0,11.0,30.0,11.0,45.0,5.0,46.341126,-119.264768,1.4,1.72,105.1957471,106.9157471,1.9,0.424,5.76319,6.63504,106.9157471,0.3,-0.3,0.0,1.4,17.0,0.0,1.0,0.9099999999999999,0.0
7.9,2024.0,11.0,30.0,11.0,45.0,5.0,46.341126,-119.264768,1.4,1.72,105.1957471,106.9157471,1.9,0.424,5.76319,6.63504,106.9157471,0.3,-0.3,0.0,1.4,17.0,0.0,1.0,0.9099999999999999,0.0
8.0,2024.0,11.0,30.0,11.0,45.0,6.0,46.341127,-119.264769,1.4,1.71,105.2057471,106.9157471,1.8,0.424,5.63078,6.77017,106.9157471,0.3,-0.3,0.0,1.4,17.0,0.0,1.0,0.9099999999999999,0.0
8.1,2024.0,11.0,30.0,11.0,45.0,6.0,46.341127,-119.264769,1.4,1.71,105.2057471,106.9157471,1.9,0.361,5.63078,6.77017,106.9157471,0.3,-0.2,0.0,1.4,17.0,0.0,1.0,0.9099999999999999,0.0
8.2,2024.0,11.0,30.0,11.0,45.0,6.0,46.341127,-119.26477,1.4,1.71,105.2057471,106.9157471,1.9,0.361,5.57555,6.84694,106.9157471,0.3,-0.2,0.0,1.4,17.0,0.0,1.0,0.9099999999999999,0.0
8.3,2024.0,11.0,30.0,11.0,45.0,6.0,46.341127,-119.26477,1.4,1.71,105.2057471,106.9157471,1.9,0.283,5.57555,6.84694,106.9157471,0.2,-0.2,0.0,1.4,17.0,0.0,1.0,0.9099999999999999,0.0
8.4,2024.0,11.0,30.0,11.0,45.0,6.0,46.341128,-119.26477,1.4,1.71,105.2057471,106.9157471,1.9,0.283,5.4985,6.95815,106.9157471,0.2,-0.2,0.0,1.4,17.0,0.0,1.0,0.9099999999999999,0.0
8.5,2024.0,11.0,30.0,11.0,45.0,6.0,46.341128,-119.264771,1.4,1.7,105.2157471,106.9157471,1.9,0.141,5.44301,7.03492,106.9157471,0.1,-0.1,0.0,1.4,17.0,0.0,1.0,0.9099999999999999,0.0
8.6,2024.0,11.0,30.0,11.0,45.0,6.0,46.341128,-119.264771,1.4,1.7,105.2157471,106.9157471,1.9,0.141,5.44301,7.03492,106.9157471,0.1,-0.1,0.0,1.4,17.0,0.0,1.0,0.9099999999999999,0.0
8.7,2024.0,11.0,30.0,11.0,45.0,6.0,46.341128,-119.264771,1.4,1.7,105.2157471,106.9157471,1.9,0.141,5.44301,7.03492,106.9157471,0.0,-0.1,-0.1,1.4,17.0,0.0,1.0,0.9149999999999999,0.0
8.8,2024.0,11.0,30.0,11.0,45.0,6.0,46.341128,-119.264772,1.4,1.7,105.2157471,106.9157471,1.9,0.141,5.38805,7.1117,106.9157471,0.0,-0.1,-0.1,1.4,17.0,0.0,1.0,0.925,0.0
8.9,2024.0,11.0,30.0,11.0,45.0,6.0,46.341128,-119.264772,1.4,1.7,105.2157471,106.9157471,1.9,0.1,5.38805,7.1117,106.9157471,0.0,0.0,-0.1,1.4,17.0,0.0,1.0,0.935,0.0
9.0,2024.0,11.0,30.0,11.0,45.0,7.0,46.341128,-119.264772,1.4,1.7,105.2157471,106.9157471,1.9,0.0,5.38805,7.1117,106.9157471,0.0,0.0,0.0,1.4,17.0,0.0,1.0,0.9400000000000001,0.0
9.1,2024.0,11.0,30.0,11.0,45.0,7.0,46.341128,-119.264772,1.4,1.7,105.2157471,106.9157471,1.9,0.0,5.38805,7.1117,106.9157471,0.0,0.0,0.0,1.4,17.0,0.0,1.0,0.9400000000000001,0.0
9.2,2024.0,11.0,30.0,11.0,45.0,7.0,46.341128,-119.264772,1.4,1.7,105.2157471,106.9157471,1.9,0.0,5.38805,7.1117,106.9157471,0.0,0.0,0.0,1.4,17.0,0.0,1.0,0.9400000000000001,0.0
9.3,2024.0,11.0,30.0,11.0,45.0,7.0,46.341128,-119.264772,1.4,1.7,105.2157471,106.9157471,1.9,0.0,5.38805,7.1117,106.9157471,0.0,0.0,0.0,1.4,17.0,0.0,1.0,0.9400000000000001,0.0
9.4,2024.0,11.0,30.0,11.0,45.0,7.0,46.341128,-119.264772,1.5,1.8,105.2157471,107.0157471,1.9,0.1,5.38805,7.1117,107.0157471,-0.1,0.0,0.0,1.5,17.0,0.0,1.0,0.9400000000000001,0.0
9.5,2024.0,11.0,30.0,11.0,45.0,7.0,46.341128,-119.264772,1.5,1.8,105.2157471,107.0157471,1.9,0.1,5.38805,7.1117,107.0157471,-0.1,0.0,0.0,1.5,17.0,0.0,1.0,0.9400000000000001,0.0
9.6,2024.0,11.0,30.0,11.0,45.0,7.0,46.341128,-119.264772,1.5,1.8,105.2157471,107.0157471,2.0,0.1,5.38805,7.1117,107.0157471,-0.1,0.0,0.0,1.5,17.0,0.0,1.0,0.9400000000000001,0.0
9.7,2024.0,11.0,30.0,11.0,45.0,7.0,46.341128,-119.264772,1.5,1.8,105.2157471,107.0157471,2.0,0.141,5.38805,7.1117,107.0157471,-0.1,0.1,0.0,1.5,17.0,0.0,1.0,0.9400000000000001,0.0
9.8,2024.0,11.0,30.0,11.0,45.0,7.0,46.341127,-119.264772,1.5,1.8,105.2157471,107.0157471,2.0,0.141,5.46666,7.2229,107.0157471,-0.1,0.1,0.0,1.5,17.0,0.0,1.0,0.9400000000000001,0.0
9.9,2024.0,11.0,30.0,11.0,45.0,7.0,46.341127,-119.264772,1.5,1.8,105.2157471,107.0157471,2.0,0.141,5.46666,7.2229,107.0157471,-0.1,0.1,0.0,1.5,17.0,0.0,1.0,0.9400000000000001,0.0
10.0,2024.0,11.0,30.0,11.0,45.0,8.0,46.341127,-119.264772,1.5,1.8,105.2157471,107.0157471,2.0,0.141,5.46666,7.2229,107.0157471,-0.1,0.1,0.0,1.5,17.0,0.0,1.0,0.9400000000000001,0.0
10.1,2024.0,11.0,30.0,11.0,45.0,8.0,46.341127,-119.264771,1.5,1.81,105.2057471,107.0157471,2.0,0.141,5.52084,7.29967,107.0157471,-0.1,0.1,0.0,1.5,17.0,0.0,1.0,0.9400000000000001,0.0
10.2,2024.0,11.0,30.0,11.0,45.0,8.0,46.341127,-119.264771,1.5,1.81,105.2057471,107.0157471,2.0,0.141,5.52084,7.29967,107.0157471,-0.1,0.1,0.0,1.5,17.0,0.0,1.0,0.9400000000000001,0.0
10.3,2024.0,11.0,30.0,11.0,45.0,8.0,46.341127,-119.264771,1.5,1.81,105.2057471,107.0157471,2.0,0.141,5.52084,7.29967,107.0157471,-0.1,0.1,0.0,1.5,17.0,0.0,1.0,0.9400000000000001,0.0
10.4,2024.0,11.0,30.0,11.0,45.0,8.0,46.341127,-119.264771,1.5,1.81,105.2057471,107.0157471,2.0,0.141,5.52084,7.29967,107.0157471,-0.1,0.1,0.0,1.5,17.0,0.0,1.0,0.9400000000000001,0.0
10.5,2024.0,11.0,30.0,11.0,45.0,8.0,46.341127,-119.26477,1.5,1.81,105.2057471,107.0157471,2.0,0.141,5.57555,7.37645,107.0157471,-0.1,0.1,0.0,1.5,17.0,0.0,1.0,0.9400000000000001,0.0
10.6,2024.0,11.0,30.0,11.0,45.0,8.0,46.341126,-119.26477,1.5,1.81,105.2057471,107.0157471,2.0,0.1,5.65374,7.48765,107.0157471,0.0,0.1,0.0,1.5,17.0,0.0,1.0,0.9400000000000001,0.0
10.7,2024.0,11.0,30.0,11.0,45.0,8.0,46.341126,-119.26477,1.5,1.81,105.2057471,107.0157471,2.0,0.1,5.65374,7.48765,107.0157471,0.0,0.1,0.0,1.5,17.0,0.0,1.0,0.9400000000000001,0.0
10.8,2024.0,11.0,30.0,11.0,45.0,8.0,46.341126,-119.264769,1.5,1.82,105.1957471,107.0157471,2.0,0.1,5.70821,7.56443,107.0157471,0.0,0.1,0.0,1.5,17.0,0.0,1.0,0.9400000000000001,0.0
10.9,2024.0,11.0,30.0,11.0,45.0,8.0,46.341126,-119.264769,1.5,1.82,105.1957471,107.0157471,2.0,0.1,5.70821,7.56443,107.0157471,0.0,0.1,0.0,1.5,17.0,0.0,1.0,0.9400000000000001,0.0
11.0,2024.0,11.0,30.0,11.0,45.0,9.0,46.341126,-119.264769,1.5,1.82,105.1957471,107.0157471,2.0,0.1,5.70821,7.56443,107.0157471,0.0,0.1,0.0,1.5,17.0,0.0,1.0,0.9400000000000001,0.0
11.1,2024.0,11.0,30.0,11.0,45.0,9.0,46.341126,-119.264769,1.5,1.82,105.1957471,107.0157471,2.0,0.1,5.70821,7.56443,107.0157471,0.0,0.1,0.0,1.5,17.0,0.0,1.0,0.9400000000000001,0.0
11.2,2024.0,11.0,30.0,11.0,45.0,9.0,46.341126,-119.264769,1.5,1.82,105.1957471,107.0157471,1.9,0.1,5.70821,7.56443,107.0157471,0.0,0.1,0.0,1.5,17.0,0.0,1.0,0.9400000000000001,0.0
11.3,2024.0,11.0,30.0,11.0,45.0,9.0,46.341126,-119.264768,1.5,1.82,105.1957471,107.0157471,1.9,0.0,5.76319,7.6412,107.0157471,0.0,0.0,0.0,1.5,17.0,0.0,1.0,0.9400000000000001,0.0
11.4,2024.0,11.0,30.0,11.0,45.0,9.0,46.341126,-119.264768,1.5,1.82,105.1957471,107.0157471,1.9,0.0,5.76319,7.6412,107.0157471,0.0,0.0,0.0,1.5,17.0,0.0,1.0,0.9400000000000001,0.0
11.5,2024.0,11.0,30.0,11.0,45.0,9.0,46.341126,-119.264768,1.4,1.72,105.1957471,106.9157471,1.9,0.0,5.76319,7.6412,106.9157471,0.0,0.0,0.0,1.4,17.0,0.0,1.0,0.9400000000000001,0.0
11.6,2024.0,11.0,30.0,11.0,45.0,9.0,46.341126,-119.264768,1.4,1.72,105.1957471,106.9157471,1.9,0.1,5.76319,7.6412,106.9157471,0.1,0.0,0.0,1.4,17.0,0.0,1.0,0.9400000000000001,0.0
11.7,2024.0,11.0,30.0,11.0,45.0,9.0,46.341126,-119.264768,1.4,1.72,105.1957471,106.9157471,1.9,0.1,5.76319,7.6412,106.9157471,0.1,0.0,0.0,1.4,17.0,0.0,1.0,0.9400000000000001,0.0
11.8,2024.0,11.0,30.0,11.0,45.0,9.0,46.341126,-119.264768,1.4,1.72,105.1957471,106.9157471,1.9,0.1,5.76319,7.6412,106.9157471,0.1,0.0,0.0,1.4,17.0,0.0,1.0,0.9400000000000001,0.0
11.9,2024.0,11.0,30.0,11.0,45.0,9.0,46.341126,-119.264768,1.4,1.72,105.1957471,106.9157471,1.9,0.1,5.76319,7.6412,106.9157471,0.1,0.0,0.0,1.4,17.0,0.0,1.0,0.9400000000000001,0.0
12.0,2024.0,11.0,30.0,11.0,45.0,10.0,46.341126,-119.264768,1.4,1.72,105.1957471,106.9157471,1.9,0.1,5.76319,7.6412,106.9157471,0.1,0.0,0.0,1.4,17.0,0.0,1.0,0.9400000000000001,0.0
12.1,2024.0,11.0,30.0,11.0,45.0,10.0,46.341127,-119.264768,1.4,1.72,105.1957471,106.9157471,1.9,0.1,5.6865,7.7524,106.9157471,0.1,0.0,0.0,1.4,17.0,0.0,1.0,0.9400000000000001,0.0
12.2,2024.0,11.0,30.0,11.0,45.0,10.0,46.341127,-119.264768,1.4,1.72,105.1957471,106.9157471,1.9,0.141,5.6865,7.7524,106.9157471,0.1,-0.1,0.0,1.4,17.0,0.0,1.0,0.9400000000000001,0.0
12.3,2024.0,11.0,30.0,11.0,45.0,10.0,46.341127,-119.264769,1.4,1.71,105.2057471,106.9157471,1.9,0.224,5.63078,7.82918,106.9157471,0.2,-0.1,0.0,1.4,17.0,0.0,1.0,0.9400000000000001,0.0
12.4,2024.0,11.0,30.0,11.0,45.0,10.0,46.341127,-119.264769,1.4,1.71,105.2057471,106.9157471,1.9,0.224,5.63078,7.82918,106.9157471,0.2,-0.1,0.0,1.4,17.0,0.0,1.0,0.9400000000000001,0.0
12.5,2024.0,11.0,30.0,11.0,45.0,10.0,46.341128,-119.264769,1.4,1.71,105.2057471,106.9157471,1.9,0.361,5.55449,7.94038,106.9157471,0.3,-0.2,0.0,1.4,17.0,0.0,1.0,0.9400000000000001,0.0
12.6,2024.0,11.0,30.0,11.0,45.0,10.0,46.341128,-119.264769,1.4,1.71,105.2057471,106.9157471,1.8,0.447,5.55449,7.94038,106.9157471,0.4,-0.2,0.0,1.4,17.0,0.0,1.0,0.9400000000000001,0.0
12.7,2024.0,11.0,30.0,11.0,45.0,10.0,46.341129,-119.264769,1.4,1.71,105.2057471,106.9157471,1.9,0.539,5.47939,8.05159,106.9157471,0.5,-0.2,0.0,1.4,17.0,0.0,1.0,0.9400000000000001,0.0
12.8,2024.0,11.0,30.0,11.0,45.0,10.0,46.341129,-119.26477,1.4,1.7,105.2157471,106.9157471,1.9,0.632,5.42263,8.12836,106.9157471,0.6,-0.2,0.0,1.4,17.0,0.0,1.0,0.9400000000000001,0.0
12.9,2024.0,11.0,30.0,11.0,45.0,10.0,46.34113,-119.26477,1.3,1.6,105.2157471,106.8157471,1.9,0.854,5.348,8.23957,106.8157471,0.8,-0.3,0.0,1.3,17.0,0.0,1.0,0.9400000000000001,0.0
13.0,2024.0,11.0,30.0,11.0,45.0,11.0,46.34113,-119.26477,1.3,1.6,105.2157471,106.8157471,1.9,0.949,5.348,8.23957,106.8157471,0.9,-0.3,0.0,1.3,17.0,0.0,1.0,0.9400000000000001,0.0
13.1,2024.0,11.0,30.0,11.0,45.0,11.0,46.341131,-119.264771,1.3,1.59,105.2257471,106.8157471,1.8,1.044,5.21679,8.3747,106.8157471,1.0,-0.3,0.0,1.3,17.0,0.0,1.0,0.9400000000000001,0.0
13.2,2024.0,11.0,30.0,11.0,45.0,11.0,46.341132,-119.264771,1.3,1.59,105.2257471,106.8157471,1.8,1.044,5.14398,8.48591,106.8157471,1.0,-0.3,0.0,1.3,17.0,0.0,1.0,0.9400000000000001,0.0
13.3,2024.0,11.0,30.0,11.0,45.0,11.0,46.341133,-119.264772,1.3,1.58,105.2357471,106.8157471,1.8,1.044,5.01354,8.62104,106.8157471,1.0,-0.3,0.0,1.3,17.0,0.0,1.0,0.9400000000000001,0.0
13.4,2024.0,11.0,30.0,11.0,45.0,11.0,46.341134,-119.264772,1.3,1.58,105.2357471,106.8157471,1.9,1.044,4.94274,8.73225,106.8157471,1.0,-0.3,0.0,1.3,17.0,0.0,1.0,0.9400000000000001,0.0
13.5,2024.0,11.0,30.0,11.0,45.0,11.0,46.341134,-119.264772,1.3,1.58,105.2357471,106.8157471,1.8,1.044,4.94274,8.73225,106.8157471,1.0,-0.3,0.0,1.3,17.0,0.0,1.0,0.9400000000000001,0.0
13.6,2024.0,11.0,30.0,11.0,45.0,11.0,46.341135,-119.264773,1.4,1.67,105.2457471,106.9157471,1.8,1.044,4.81321,8.86738,106.9157471,1.0,-0.3,0.0,1.4,17.0,0.0,1.0,0.9400000000000001,0.0
13.7,2024.0,11.0,30.0,11.0,45.0,11.0,46.341136,-119.264773,1.4,1.67,105.2457471,106.9157471,1.9,0.922,4.74463,8.97858,106.9157471,0.9,-0.2,0.0,1.4,17.0,0.0,1.0,0.9400000000000001,0.0
13.8,2024.0,11.0,30.0,11.0,45.0,11.0,46.341137,-119.264774,1.4,1.66,105.2557471,106.9157471,1.9,0.927,4.61618,9.11372,106.9157471,0.9,-0.2,-0.1,1.4,17.0,0.0,1.0,0.9450000000000002,0.0
13.9,2024.0,11.0,30.0,11.0,45.0,11.0,46.341138,-119.264774,1.4,1.66,105.2557471,106.9157471,1.9,0.927,4.55007,9.22492,106.9157471,0.9,-0.2,-0.1,1.4,17.0,0.0,1.0,0.9550000000000002,0.0
14.0,2024.0,11.0,30.0,11.0,45.0,12.0,46.341139,-119.264775,1.4,1.65,105.2657471,106.9157471,1.9,0.831,4.42289,9.36006,106.9157471,0.8,-0.2,-0.1,1.4,17.0,0.0,1.0,0.9650000000000002,0.0
14.1,2024.0,11.0,30.0,11.0,45.0,12.0,46.34114,-119.264775,1.4,1.65,105.2657471,106.9157471,1.9,0.831,4.35952,9.47126,106.9157471,0.8,-0.2,-0.1,1.4,17.0,0.0,1.0,0.9750000000000002,0.0
14.2,2024.0,11.0,30.0,11.0,45.0,12.0,46.341141,-119.264775,1.4,1.64,105.2757471,106.9157471,1.9,0.831,4.2981,9.58247,106.9157471,0.8,-0.2,-0.1,1.4,17.0,0.0,1.0,0.9850000000000002,0.0
14.3,2024.0,11.0,30.0,11.0,45.0,12.0,46.341141,-119.264775,1.4,1.64,105.2757471,106.9157471,1.9,0.831,4.2981,9.58247,106.9157471,0.8,-0.2,-0.1,1.4,17.0,0.0,1.0,0.9950000000000003,0.0
14.4,2024.0,11.0,30.0,11.0,45.0,12.0,46.341142,-119.264776,1.4,1.64,105.2757471,106.9157471,1.9,0.806,4.17355,9.7176,106.9157471,0.8,-0.1,0.0,1.4,17.0,0.0,1.0,1.0000000000000002,0.0
14.5,2024.0,11.0,30.0,11.0,45.0,12.0,46.341143,-119.264776,1.4,1.63,105.2857471,106.9157471,1.9,0.707,4.11536,9.82881,106.9157471,0.7,-0.1,0.0,1.4,17.0,0.0,1.0,1.0000000000000002,0.0
14.6,2024.0,11.0,30.0,11.0,45.0,12.0,46.341144,-119.264776,1.4,1.63,105.2857471,106.9157471,1.9,0.707,4.05938,9.94001,106.9157471,0.7,-0.1,0.0,1.4,17.0,0.0,1.0,1.0000000000000002,0.0
14.7,2024.0,11.0,30.0,11.0,45.0,12.0,46.341145,-119.264777,1.4,1.62,105.2957471,106.9157471,1.9,0.707,3.9382,10.0751,106.9157471,0.7,-0.1,0.0,1.4,17.0,0.0,1.0,1.0000000000000002,0.0
14.8,2024.0,11.0,30.0,11.0,45.0,12.0,46.341145,-119.264777,1.4,1.62,105.2957471,106.9157471,1.9,0.707,3.9382,10.0751,106.9157471,0.7,-0.1,0.0,1.4,17.0,0.0,1.0,1.0000000000000002,0.0
14.9,2024.0,11.0,30.0,11.0,45.0,12.0,46.341146,-119.264777,1.5,1.72,105.2957471,107.0157471,2.0,0.707,3.88604,10.1864,107.0157471,0.7,-0.1,0.0,1.5,17.0,0.0,1.0,1.0000000000000002,0.0
15.0,2024.0,11.0,30.0,11.0,45.0,13.0,46.341147,-119.264777,1.5,1.71,105.3057471,107.0157471,2.0,0.707,3.8364,10.2976,107.0157471,0.7,-0.1,0.0,1.5,17.0,0.0,1.0,1.0000000000000002,0.0
15.100000000000001,2024.0,11.0,30.0,11.0,45.0,13.0,46.341147,-119.264778,1.5,1.71,105.3057471,107.0157471,2.0,0.707,3.76741,10.3743,107.0157471,0.7,-0.1,0.0,1.5,17.0,0.0,1.0,1.0000000000000002,0.0
15.2,2024.0,11.0,30.0,11.0,45.0,13.0,46.341148,-119.264778,1.5,1.71,105.3057471,107.0157471,2.0,0.707,3.71951,10.4855,107.0157471,0.7,-0.1,0.0,1.5,17.0,0.0,1.0,1.0000000000000002,0.0
15.3,2024.0,11.0,30.0,11.0,45.0,13.0,46.341149,-119.264778,1.5,1.7,105.3157471,107.0157471,2.0,0.707,3.67435,10.5967,107.0157471,0.7,-0.1,0.0,1.5,17.0,0.0,1.0,1.0000000000000002,0.0
15.399999999999999,2024.0,11.0,30.0,11.0,45.0,13.0,46.341149,-119.264778,1.5,1.7,105.3157471,107.0157471,2.0,0.608,3.67435,10.5967,107.0157471,0.6,-0.1,0.0,1.5,17.0,0.0,1.0,1.0000000000000002,0.0
15.5,2024.0,11.0,30.0,11.0,45.0,13.0,46.34115,-119.264778,1.5,1.7,105.3157471,107.0157471,2.0,0.608,3.63203,10.7079,107.0157471,0.6,-0.1,0.0,1.5,17.0,0.0,1.0,1.0000000000000002,0.0
15.600000000000001,2024.0,11.0,30.0,11.0,45.0,13.0,46.341151,-119.264778,1.5,1.7,105.3157471,107.0157471,2.0,0.608,3.59266,10.8192,107.0157471,0.6,-0.1,0.0,1.5,17.0,0.0,1.0,1.0000000000000002,0.0
15.7,2024.0,11.0,30.0,11.0,45.0,13.0,46.341151,-119.264778,1.5,1.7,105.3157471,107.0157471,2.0,0.608,3.59266,10.8192,107.0157471,0.6,-0.1,0.0,1.5,17.0,0.0,1.0,1.0000000000000002,0.0
15.8,2024.0,11.0,30.0,11.0,45.0,13.0,46.341152,-119.264779,1.5,1.69,105.3257471,107.0157471,2.0,0.608,3.48349,10.9543,107.0157471,0.6,-0.1,0.0,1.5,17.0,0.0,1.0,1.0000000000000002,0.0
15.899999999999999,2024.0,11.0,30.0,11.0,45.0,13.0,46.341153,-119.264779,1.5,1.68,105.3357471,107.0157471,2.0,0.707,3.4496,11.0655,107.0157471,0.7,-0.1,0.0,1.5,17.0,0.0,1.0,1.0000000000000002,0.0
16.0,2024.0,11.0,30.0,11.0,45.0,14.0,46.341153,-119.264779,1.5,1.68,105.3357471,107.0157471,2.0,0.707,3.4496,11.0655,107.0157471,0.7,-0.1,0.0,1.5,17.0,0.0,1.0,1.0000000000000002,0.0
16.1,2024.0,11.0,30.0,11.0,45.0,14.0,46.341154,-119.264779,1.5,1.68,105.3357471,107.0157471,2.0,0.707,3.419,11.1767,107.0157471,0.7,-0.1,0.0,1.5,17.0,0.0,1.0,1.0000000000000002,0.0
16.2,2024.0,11.0,30.0,11.0,45.0,14.0,46.341154,-119.264779,1.5,1.68,105.3357471,107.0157471,2.0,0.707,3.419,11.1767,107.0157471,0.7,-0.1,0.0,1.5,17.0,0.0,1.0,1.0000000000000002,0.0
16.3,2024.0,11.0,30.0,11.0,45.0,14.0,46.341155,-119.26478,1.5,1.67,105.3457471,107.0157471,2.0,0.707,3.31708,11.3118,107.0157471,0.7,-0.1,0.0,1.5,17.0,0.0,1.0,1.0000000000000002,0.0
16.4,2024.0,11.0,30.0,11.0,45.0,14.0,46.341156,-119.26478,1.5,1.67,105.3457471,107.0157471,2.0,0.707,3.29276,11.423,107.0157471,0.7,-0.1,0.0,1.5,17.0,0.0,1.0,1.0000000000000002,0.0
16.5,2024.0,11.0,30.0,11.0,45.0,14.0,46.341157,-119.26478,1.5,1.67,105.3457471,107.0157471,2.0,0.707,3.27204,11.5342,107.0157471,0.7,-0.1,0.0,1.5,17.0,0.0,1.0,1.0000000000000002,0.0
16.6,2024.0,11.0,30.0,11.0,45.0,14.0,46.341157,-119.26478,1.5,1.67,105.3457471,107.0157471,2.0,0.728,3.27204,11.5342,107.0157471,0.7,-0.2,0.0,1.5,17.0,0.0,1.0,1.0000000000000002,0.0
16.7,2024.0,11.0,30.0,11.0,45.0,14.0,46.341158,-119.26478,1.5,1.66,105.3557471,107.0157471,2.0,0.728,3.25499,11.6455,107.0157471,0.7,-0.2,0.0,1.5,17.0,0.0,1.0,1.0000000000000002,0.0
16.8,2024.0,11.0,30.0,11.0,45.0,14.0,46.341159,-119.264781,1.5,1.66,105.3557471,107.0157471,2.0,0.728,3.16531,11.7806,107.0157471,0.7,-0.2,0.0,1.5,17.0,0.0,1.0,1.0000000000000002,0.0
16.9,2024.0,11.0,30.0,11.0,45.0,14.0,46.341159,-119.264781,1.5,1.66,105.3557471,107.0157471,2.0,0.728,3.16531,11.7806,107.0157471,0.7,-0.2,0.0,1.5,17.0,0.0,1.0,1.0000000000000002,0.0
17.0,2024.0,11.0,30.0,11.0,45.0,15.0,46.34116,-119.264781,1.5,1.65,105.3657471,107.0157471,2.0,0.825,3.15552,11.8918,107.0157471,0.8,-0.2,0.0,1.5,17.0,0.0,1.0,1.0000000000000002,0.0
17.1,2024.0,11.0,30.0,11.0,45.0,15.0,46.34116,-119.264782,1.5,1.65,105.3657471,107.0157471,2.0,0.825,3.07895,11.9686,107.0157471,0.8,-0.2,0.0,1.5,17.0,0.0,1.0,1.0000000000000002,0.0
17.2,2024.0,11.0,30.0,11.0,45.0,15.0,46.341161,-119.264782,1.5,1.65,105.3657471,107.0157471,2.0,0.806,3.07292,12.0798,107.0157471,0.8,-0.1,0.0,1.5,17.0,0.0,1.0,1.0000000000000002,0.0
17.3,2024.0,11.0,30.0,11.0,45.0,15.0,46.341162,-119.264782,1.5,1.64,105.3757471,107.0157471,2.0,0.806,3.0709,12.191,107.0157471,0.8,-0.1,0.0,1.5,17.0,0.0,1.0,1.0000000000000002,0.0
17.4,2024.0,11.0,30.0,11.0,45.0,15.0,46.341163,-119.264782,1.5,1.64,105.3757471,107.0157471,2.0,0.806,3.07292,12.3022,107.0157471,0.8,-0.1,0.0,1.5,17.0,0.0,1.0,1.0000000000000002,0.0
17.5,2024.0,11.0,30.0,11.0,45.0,15.0,46.341163,-119.264782,1.4,1.54,105.3757471,106.9157471,1.9,0.806,3.07292,12.3022,106.9157471,0.8,-0.1,0.0,1.4,17.0,0.0,1.0,1.0000000000000002,0.0
17.6,2024.0,11.0,30.0,11.0,45.0,15.0,46.341164,-119.264783,1.4,1.53,105.3857471,106.9157471,1.9,0.806,3.00238,12.4373,106.9157471,0.8,-0.1,0.0,1.4,17.0,0.0,1.0,1.0000000000000002,0.0
17.7,2024.0,11.0,30.0,11.0,45.0,15.0,46.341165,-119.264783,1.4,1.53,105.3857471,106.9157471,1.9,0.812,3.01266,12.5485,106.9157471,0.8,-0.1,0.1,1.4,17.0,0.0,1.0,0.9950000000000003,0.0
17.8,2024.0,11.0,30.0,11.0,45.0,15.0,46.341166,-119.264783,1.4,1.52,105.3957471,106.9157471,1.9,0.806,3.02699,12.6597,106.9157471,0.8,-0.1,0.0,1.4,17.0,0.0,1.0,0.9900000000000002,0.0
17.9,2024.0,11.0,30.0,11.0,45.0,15.0,46.341166,-119.264783,1.4,1.52,105.3957471,106.9157471,1.9,0.806,3.02699,12.6597,106.9157471,0.8,-0.1,0.0,1.4,17.0,0.0,1.0,0.9900000000000002,0.0
18.0,2024.0,11.0,30.0,11.0,45.0,16.0,46.341167,-119.264783,1.4,1.52,105.3957471,106.9157471,1.9,0.806,3.04532,12.7709,106.9157471,0.8,-0.1,0.0,1.4,17.0,0.0,1.0,0.9900000000000002,0.0
18.1,2024.0,11.0,30.0,11.0,45.0,16.0,46.341168,-119.264784,1.4,1.51,105.4057471,106.9157471,1.9,0.707,2.99269,12.9061,106.9157471,0.7,-0.1,0.0,1.4,17.0,0.0,1.0,0.9900000000000002,0.0
18.2,2024.0,11.0,30.0,11.0,45.0,16.0,46.341168,-119.264784,1.4,1.51,105.4057471,106.9157471,1.8,0.707,2.99269,12.9061,106.9157471,0.7,-0.1,0.0,1.4,17.0,0.0,1.0,0.9900000000000002,0.0
18.3,2024.0,11.0,30.0,11.0,45.0,16.0,46.341169,-119.264784,1.4,1.51,105.4057471,106.9157471,1.8,0.707,3.01943,13.0173,106.9157471,0.7,-0.1,0.0,1.4,17.0,0.0,1.0,0.9900000000000002,0.0
18.4,2024.0,11.0,30.0,11.0,45.0,16.0,46.34117,-119.264784,1.4,1.51,105.4057471,106.9157471,1.8,0.707,3.04999,13.1285,106.9157471,0.7,-0.1,0.0,1.4,17.0,0.0,1.0,0.9900000000000002,0.0
18.5,2024.0,11.0,30.0,11.0,45.0,16.0,46.34117,-119.264785,1.4,1.5,105.4157471,106.9157471,1.8,0.728,2.97664,13.2052,106.9157471,0.7,-0.2,0.0,1.4,17.0,0.0,1.0,0.9900000000000002,0.0
18.6,2024.0,11.0,30.0,11.0,45.0,16.0,46.341171,-119.264785,1.4,1.5,105.4157471,106.9157471,1.8,0.728,3.01175,13.3165,106.9157471,0.7,-0.2,0.0,1.4,17.0,0.0,1.0,0.9900000000000002,0.0
18.7,2024.0,11.0,30.0,11.0,45.0,16.0,46.341172,-119.264785,1.3,1.39,105.4257471,106.8157471,1.8,0.728,3.05051,13.4277,106.8157471,0.7,-0.2,0.0,1.3,17.0,0.0,1.0,0.9900000000000002,0.0
18.8,2024.0,11.0,30.0,11.0,45.0,16.0,46.341173,-119.264786,1.3,1.39,105.4257471,106.8157471,1.8,0.728,3.02242,13.5628,106.8157471,0.7,-0.2,0.0,1.3,17.0,0.0,1.0,0.9900000000000002,0.0
18.9,2024.0,11.0,30.0,11.0,45.0,16.0,46.341173,-119.264786,1.3,1.39,105.4257471,106.8157471,1.8,0.728,3.02242,13.5628,106.8157471,0.7,-0.2,0.0,1.3,17.0,0.0,1.0,0.9900000000000002,0.0
19.0,2024.0,11.0,30.0,11.0,45.0,17.0,46.341174,-119.264786,1.3,1.38,105.4357471,106.8157471,1.8,0.825,3.06912,13.674,106.8157471,0.8,-0.2,0.0,1.3,17.0,0.0,1.0,0.9900000000000002,0.0
19.1,2024.0,11.0,30.0,11.0,45.0,17.0,46.341175,-119.264786,1.3,1.38,105.4357471,106.8157471,1.8,0.806,3.11908,13.7852,106.8157471,0.8,-0.1,0.0,1.3,17.0,0.0,1.0,0.9900000000000002,0.0
19.2,2024.0,11.0,30.0,11.0,45.0,17.0,46.341176,-119.264786,1.3,1.38,105.4357471,106.8157471,1.8,0.806,3.17215,13.8964,106.8157471,0.8,-0.1,0.0,1.3,17.0,0.0,1.0,0.9900000000000002,0.0
19.3,2024.0,11.0,30.0,11.0,45.0,17.0,46.341176,-119.264787,1.3,1.37,105.4457471,106.8157471,1.8,0.806,3.10549,13.9732,106.8157471,0.8,-0.1,0.0,1.3,17.0,0.0,1.0,0.9900000000000002,0.0
19.4,2024.0,11.0,30.0,11.0,45.0,17.0,46.341177,-119.264787,1.3,1.37,105.4457471,106.8157471,1.8,0.806,3.16271,14.0844,106.8157471,0.8,-0.1,0.0,1.3,17.0,0.0,1.0,0.9900000000000002,0.0
19.5,2024.0,11.0,30.0,11.0,45.0,17.0,46.341178,-119.264787,1.4,1.47,105.4457471,106.9157471,1.8,0.806,3.22274,14.1956,106.9157471,0.8,-0.1,0.0,1.4,17.0,0.0,1.0,0.9900000000000002,0.0
19.6,2024.0,11.0,30.0,11.0,45.0,17.0,46.341179,-119.264787,1.4,1.46,105.4557471,106.9157471,1.8,0.714,3.28545,14.3068,106.9157471,0.7,-0.1,-0.1,1.4,17.0,0.0,1.0,0.9950000000000003,0.0
19.7,2024.0,11.0,30.0,11.0,45.0,17.0,46.341179,-119.264787,1.4,1.46,105.4557471,106.9157471,1.8,0.714,3.28545,14.3068,106.9157471,0.7,-0.1,-0.1,1.4,17.0,0.0,1.0,1.0050000000000001,0.0
19.8,2024.0,11.0,30.0,11.0,45.0,17.0,46.34118,-119.264788,1.4,1.46,105.4557471,106.9157471,1.9,0.714,3.28943,14.4419,106.9157471,0.7,-0.1,-0.1,1.4,17.0,0.0,1.0,1.0150000000000003,0.0
19.9,2024.0,11.0,30.0,11.0,45.0,17.0,46.341181,-119.264788,1.4,1.45,105.4657471,106.9157471,1.9,0.714,3.35826,14.5531,106.9157471,0.7,-0.1,-0.1,1.4,17.0,0.0,1.0,1.0250000000000001,0.0
20.0,2024.0,11.0,30.0,11.0,45.0,18.0,46.341181,-119.264788,1.4,1.45,105.4657471,106.9157471,1.9,0.714,3.35826,14.5531,106.9157471,0.7,-0.1,-0.1,1.4,17.0,0.0,1.0,1.0350000000000004,0.0
20.1,2024.0,11.0,30.0,11.0,45.0,18.0,46.341182,-119.264789,1.4,1.44,105.4757471,106.9157471,1.9,0.714,3.37125,14.6883,106.9157471,0.7,-0.1,-0.1,1.4,17.0,0.0,1.0,1.0450000000000006,0.0
20.2,2024.0,11.0,30.0,11.0,45.0,18.0,46.341183,-119.264789,1.4,1.44,105.4757471,106.9157471,1.9,0.707,3.44563,14.7995,106.9157471,0.7,-0.1,0.0,1.4,17.0,0.0,1.0,1.0500000000000005,0.0
20.3,2024.0,11.0,30.0,11.0,45.0,18.0,46.341183,-119.264789,1.4,1.44,105.4757471,106.9157471,1.9,0.707,3.44563,14.7995,106.9157471,0.7,-0.1,0.0,1.4,17.0,0.0,1.0,1.0500000000000005,0.0
20.4,2024.0,11.0,30.0,11.0,45.0,18.0,46.341184,-119.264789,1.4,1.44,105.4757471,106.9157471,1.9,0.707,3.52195,14.9107,106.9157471,0.7,-0.1,0.0,1.4,17.0,0.0,1.0,1.0500000000000005,0.0
20.5,2024.0,11.0,30.0,11.0,45.0,18.0,46.341185,-119.26479,1.4,1.43,105.4857471,106.9157471,1.9,0.707,3.54648,15.0458,106.9157471,0.7,-0.1,0.0,1.4,17.0,0.0,1.0,1.0500000000000005,0.0
20.6,2024.0,11.0,30.0,11.0,45.0,18.0,46.341185,-119.26479,1.4,1.43,105.4857471,106.9157471,1.9,0.707,3.54648,15.0458,106.9157471,0.7,-0.1,0.0,1.4,17.0,0.0,1.0,1.0500000000000005,0.0
20.7,2024.0,11.0,30.0,11.0,45.0,18.0,46.341186,-119.26479,1.5,1.53,105.4857471,107.0157471,1.9,0.707,3.6275,15.157,107.0157471,0.7,-0.1,0.0,1.5,17.0,0.0,1.0,1.0500000000000005,0.0
20.8,2024.0,11.0,30.0,11.0,45.0,18.0,46.341187,-119.26479,1.5,1.52,105.4957471,107.0157471,1.9,0.707,3.71008,15.2682,107.0157471,0.7,-0.1,0.0,1.5,17.0,0.0,1.0,1.0500000000000005,0.0
20.9,2024.0,11.0,30.0,11.0,45.0,18.0,46.341188,-119.26479,1.5,1.52,105.4957471,107.0157471,1.9,0.707,3.79413,15.3794,107.0157471,0.7,-0.1,0.0,1.5,17.0,0.0,1.0,1.0500000000000005,0.0
21.0,2024.0,11.0,30.0,11.0,45.0,19.0,46.341188,-119.26479,1.5,1.52,105.4957471,107.0157471,2.0,0.707,3.79413,15.3794,107.0157471,0.7,-0.1,0.0,1.5,17.0,0.0,1.0,1.0500000000000005,0.0
21.1,2024.0,11.0,30.0,11.0,45.0,19.0,46.341189,-119.264791,1.5,1.51,105.5057471,107.0157471,2.0,0.707,3.83139,15.5146,107.0157471,0.7,-0.1,0.0,1.5,17.0,0.0,1.0,1.0500000000000005,0.0
21.2,2024.0,11.0,30.0,11.0,45.0,19.0,46.34119,-119.264791,1.5,1.51,105.5057471,107.0157471,2.0,0.707,3.91915,15.6258,107.0157471,0.7,-0.1,0.0,1.5,17.0,0.0,1.0,1.0500000000000005,0.0
21.3,2024.0,11.0,30.0,11.0,45.0,19.0,46.34119,-119.264791,1.5,1.51,105.5057471,107.0157471,2.0,0.707,3.91915,15.6258,107.0157471,0.7,-0.1,0.0,1.5,17.0,0.0,1.0,1.0500000000000005,0.0
21.4,2024.0,11.0,30.0,11.0,45.0,19.0,46.341191,-119.264791,1.5,1.5,105.5157471,107.0157471,2.0,0.707,4.00807,15.737,107.0157471,0.7,-0.1,0.0,1.5,17.0,0.0,1.0,1.0500000000000005,0.0
21.5,2024.0,11.0,30.0,11.0,45.0,19.0,46.341192,-119.264791,1.5,1.5,105.5157471,107.0157471,2.0,0.707,4.09808,15.8482,107.0157471,0.7,-0.1,0.0,1.5,17.0,0.0,1.0,1.0500000000000005,0.0
21.6,2024.0,11.0,30.0,11.0,45.0,19.0,46.341192,-119.264792,1.5,1.5,105.5157471,107.0157471,2.0,0.707,4.05398,15.925,107.0157471,0.7,-0.1,0.0,1.5,17.0,0.0,1.0,1.0500000000000005,0.0
21.7,2024.0,11.0,30.0,11.0,45.0,19.0,46.341193,-119.264792,1.5,1.49,105.5257471,107.0157471,2.0,0.707,4.14598,16.0362,107.0157471,0.7,-0.1,0.0,1.5,17.0,0.0,1.0,1.0500000000000005,0.0
21.8,2024.0,11.0,30.0,11.0,45.0,19.0,46.341194,-119.264792,1.5,1.49,105.5257471,107.0157471,2.0,0.806,4.23889,16.1474,107.0157471,0.8,-0.1,0.0,1.5,17.0,0.0,1.0,1.0500000000000005,0.0
21.9,2024.0,11.0,30.0,11.0,45.0,19.0,46.341195,-119.264792,1.5,1.49,105.5257471,107.0157471,2.0,0.806,4.33267,16.2586,107.0157471,0.8,-0.1,0.0,1.5,17.0,0.0,1.0,1.0500000000000005,0.0
22.0,2024.0,11.0,30.0,11.0,45.0,20.0,46.341195,-119.264792,1.5,1.49,105.5257471,107.0157471,2.0,0.806,4.33267,16.2586,107.0157471,0.8,-0.1,0.0,1.5,17.0,0.0,1.0,1.0500000000000005,0.0
22.1,2024.0,11.0,30.0,11.0,45.0,20.0,46.341196,-119.264792,1.5,1.48,105.5357471,107.0157471,2.0,0.806,4.42726,16.3698,107.0157471,0.8,-0.1,0.0,1.5,17.0,0.0,1.0,1.0500000000000005,0.0
22.2,2024.0,11.0,30.0,11.0,45.0,20.0,46.341197,-119.264792,1.5,1.48,105.5357471,107.0157471,2.0,0.8,4.5226,16.481,107.0157471,0.8,0.0,0.0,1.5,17.0,0.0,1.0,1.0500000000000005,0.0
22.3,2024.0,11.0,30.0,11.0,45.0,20.0,46.341197,-119.264793,1.5,1.48,105.5357471,107.0157471,2.0,0.7,4.48399,16.5578,107.0157471,0.7,0.0,0.0,1.5,17.0,0.0,1.0,1.0500000000000005,0.0
22.4,2024.0,11.0,30.0,11.0,45.0,20.0,46.341198,-119.264793,1.5,1.47,105.5457471,107.0157471,2.0,0.7,4.58086,16.669,107.0157471,0.7,0.0,0.0,1.5,17.0,0.0,1.0,1.0500000000000005,0.0
22.5,2024.0,11.0,30.0,11.0,45.0,20.0,46.341199,-119.264793,1.5,1.47,105.5457471,107.0157471,1.9,0.7,4.67836,16.7802,107.0157471,0.7,0.0,0.0,1.5,17.0,0.0,1.0,1.0500000000000005,0.0
22.6,2024.0,11.0,30.0,11.0,45.0,20.0,46.341199,-119.264793,1.5,1.47,105.5457471,107.0157471,1.9,0.707,4.67836,16.7802,107.0157471,0.7,-0.1,0.0,1.5,17.0,0.0,1.0,1.0500000000000005,0.0
22.7,2024.0,11.0,30.0,11.0,45.0,20.0,46.3412,-119.264793,1.5,1.47,105.5457471,107.0157471,1.9,0.707,4.77646,16.8914,107.0157471,0.7,-0.1,0.0,1.5,17.0,0.0,1.0,1.0500000000000005,0.0
22.8,2024.0,11.0,30.0,11.0,45.0,20.0,46.341201,-119.264793,1.5,1.46,105.5557471,107.0157471,1.9,0.707,4.87512,17.0026,107.0157471,0.7,-0.1,0.0,1.5,17.0,0.0,1.0,1.0500000000000005,0.0
22.9,2024.0,11.0,30.0,11.0,45.0,20.0,46.341201,-119.264793,1.5,1.46,105.5557471,107.0157471,1.9,0.806,4.87512,17.0026,107.0157471,0.8,-0.1,0.0,1.5,17.0,0.0,1.0,1.0500000000000005,0.0
23.0,2024.0,11.0,30.0,11.0,45.0,21.0,46.341202,-119.264793,1.4,1.36,105.5557471,106.9157471,1.9,0.806,4.97431,17.1138,106.9157471,0.8,-0.1,0.0,1.4,17.0,0.0,1.0,1.0500000000000005,0.0
23.1,2024.0,11.0,30.0,11.0,45.0,21.0,46.341203,-119.264793,1.4,1.35,105.5657471,106.9157471,1.9,0.806,5.074,17.225,106.9157471,0.8,-0.1,0.0,1.4,17.0,0.0,1.0,1.0500000000000005,0.0
23.2,2024.0,11.0,30.0,11.0,45.0,21.0,46.341204,-119.264794,1.4,1.35,105.5657471,106.9157471,1.9,0.806,5.14159,17.3601,106.9157471,0.8,-0.1,0.0,1.4,17.0,0.0,1.0,1.0500000000000005,0.0
23.3,2024.0,11.0,30.0,11.0,45.0,21.0,46.341204,-119.264794,1.4,1.35,105.5657471,106.9157471,1.9,0.806,5.14159,17.3601,106.9157471,0.8,-0.1,0.0,1.4,17.0,0.0,1.0,1.0500000000000005,0.0
23.4,2024.0,11.0,30.0,11.0,45.0,21.0,46.341205,-119.264794,1.4,1.34,105.5757471,106.9157471,1.9,0.806,5.24282,17.4713,106.9157471,0.8,-0.1,0.0,1.4,17.0,0.0,1.0,1.0500000000000005,0.0
23.5,2024.0,11.0,30.0,11.0,45.0,21.0,46.341206,-119.264794,1.4,1.34,105.5757471,106.9157471,1.9,0.806,5.34444,17.5825,106.9157471,0.8,-0.1,0.0,1.4,17.0,0.0,1.0,1.0500000000000005,0.0
23.6,2024.0,11.0,30.0,11.0,45.0,21.0,46.341207,-119.264794,1.4,1.34,105.5757471,106.9157471,1.9,0.707,5.44644,17.6938,106.9157471,0.7,-0.1,0.0,1.4,17.0,0.0,1.0,1.0500000000000005,0.0
23.7,2024.0,11.0,30.0,11.0,45.0,21.0,46.341207,-119.264795,1.4,1.33,105.5857471,106.9157471,1.9,0.707,5.41659,17.7705,106.9157471,0.7,-0.1,0.0,1.4,17.0,0.0,1.0,1.0500000000000005,0.0
23.8,2024.0,11.0,30.0,11.0,45.0,21.0,46.341208,-119.264795,1.4,1.33,105.5857471,106.9157471,1.9,0.707,5.5195,17.8817,106.9157471,0.7,-0.1,0.0,1.4,17.0,0.0,1.0,1.0500000000000005,0.0
23.9,2024.0,11.0,30.0,11.0,45.0,21.0,46.341209,-119.264795,1.4,1.33,105.5857471,106.9157471,1.9,0.707,5.62272,17.9929,106.9157471,0.7,-0.1,0.0,1.4,17.0,0.0,1.0,1.0500000000000005,0.0
24.0,2024.0,11.0,30.0,11.0,45.0,22.0,46.341209,-119.264795,1.4,1.33,105.5857471,106.9157471,1.8,0.707,5.62272,17.9929,106.9157471,0.7,-0.1,0.0,1.4,17.0,0.0,1.0,1.0500000000000005,0.0
24.1,2024.0,11.0,30.0,11.0,45.0,22.0,46.34121,-119.264795,1.4,1.32,105.5957471,106.9157471,1.8,0.707,5.72624,18.1041,106.9157471,0.7,-0.1,0.0,1.4,17.0,0.0,1.0,1.0500000000000005,0.0
24.2,2024.0,11.0,30.0,11.0,45.0,22.0,46.341211,-119.264795,1.4,1.32,105.5957471,106.9157471,1.8,0.806,5.83004,18.2153,106.9157471,0.8,-0.1,0.0,1.4,17.0,0.0,1.0,1.0500000000000005,0.0
24.3,2024.0,11.0,30.0,11.0,45.0,22.0,46.341212,-119.264796,1.4,1.31,105.6057471,106.9157471,1.8,0.806,5.90774,18.3505,106.9157471,0.8,-0.1,0.0,1.4,17.0,0.0,1.0,1.0500000000000005,0.0
24.4,2024.0,11.0,30.0,11.0,45.0,22.0,46.341212,-119.264796,1.4,1.31,105.6057471,106.9157471,1.8,0.806,5.90774,18.3505,106.9157471,0.8,-0.1,0.0,1.4,17.0,0.0,1.0,1.0500000000000005,0.0
24.5,2024.0,11.0,30.0,11.0,45.0,22.0,46.341213,-119.264796,1.4,1.31,105.6057471,106.9157471,1.8,0.8,6.01252,18.4617,106.9157471,0.8,0.0,0.0,1.4,17.0,0.0,1.0,1.0500000000000005,0.0
24.6,2024.0,11.0,30.0,11.0,45.0,22.0,46.341214,-119.264796,1.4,1.3,105.6157471,106.9157471,1.8,0.8,6.11753,18.5729,106.9157471,0.8,0.0,0.0,1.4,17.0,0.0,1.0,1.0500000000000005,0.0
24.7,2024.0,11.0,30.0,11.0,45.0,22.0,46.341214,-119.264796,1.4,1.3,105.6157471,106.9157471,1.9,0.8,6.11753,18.5729,106.9157471,0.8,0.0,0.0,1.4,17.0,0.0,1.0,1.0500000000000005,0.0
24.8,2024.0,11.0,30.0,11.0,45.0,22.0,46.341215,-119.264796,1.4,1.3,105.6157471,106.9157471,1.8,0.7,6.22276,18.6841,106.9157471,0.7,0.0,0.0,1.4,17.0,0.0,1.0,1.0500000000000005,0.0
24.9,2024.0,11.0,30.0,11.0,45.0,22.0,46.341216,-119.264796,1.4,1.3,105.6157471,106.9157471,1.8,0.7,6.32819,18.7953,106.9157471,0.7,0.0,0.0,1.4,17.0,0.0,1.0,1.0500000000000005,0.0
25.0,2024.0,11.0,30.0,11.0,45.0,23.0,46.341216,-119.264796,1.4,1.3,105.6157471,106.9157471,1.8,0.707,6.32819,18.7953,106.9157471,0.7,-0.1,0.0,1.4,17.0,0.0,1.0,1.0500000000000005,0.0
25.1,2024.0,11.0,30.0,11.0,45.0,23.0,46.341217,-119.264796,1.4,1.29,105.6257471,106.9157471,1.8,0.707,6.43381,18.9065,106.9157471,0.7,-0.1,0.0,1.4,17.0,0.0,1.0,1.0500000000000005,0.0
25.2,2024.0,11.0,30.0,11.0,45.0,23.0,46.341218,-119.264797,1.4,1.29,105.6257471,106.9157471,1.8,0.707,6.5166,19.0416,106.9157471,0.7,-0.1,0.0,1.4,17.0,0.0,1.0,1.0500000000000005,0.0
25.3,2024.0,11.0,30.0,11.0,45.0,23.0,46.341218,-119.264797,1.4,1.29,105.6257471,106.9157471,1.9,0.707,6.5166,19.0416,106.9157471,0.7,-0.1,0.0,1.4,17.0,0.0,1.0,1.0500000000000005,0.0
25.4,2024.0,11.0,30.0,11.0,45.0,23.0,46.341219,-119.264797,1.4,1.28,105.6357471,106.9157471,1.8,0.707,6.62295,19.1528,106.9157471,0.7,-0.1,0.0,1.4,17.0,0.0,1.0,1.0500000000000005,0.0
25.5,2024.0,11.0,30.0,11.0,45.0,23.0,46.34122,-119.264797,1.4,1.28,105.6357471,106.9157471,1.8,0.707,6.72946,19.2641,106.9157471,0.7,-0.1,0.0,1.4,17.0,0.0,1.0,1.0500000000000005,0.0
25.6,2024.0,11.0,30.0,11.0,45.0,23.0,46.341221,-119.264797,1.4,1.28,105.6357471,106.9157471,1.8,0.707,6.83612,19.3753,106.9157471,0.7,-0.1,0.0,1.4,17.0,0.0,1.0,1.0500000000000005,0.0
25.7,2024.0,11.0,30.0,11.0,45.0,23.0,46.341221,-119.264797,1.4,1.28,105.6357471,106.9157471,1.9,0.806,6.83612,19.3753,106.9157471,0.8,-0.1,0.0,1.4,17.0,0.0,1.0,1.0500000000000005,0.0
25.8,2024.0,11.0,30.0,11.0,45.0,23.0,46.341222,-119.264797,1.4,1.27,105.6457471,106.9157471,1.9,0.806,6.94293,19.4865,106.9157471,0.8,-0.1,0.0,1.4,17.0,0.0,1.0,1.0500000000000005,0.0
25.9,2024.0,11.0,30.0,11.0,45.0,23.0,46.341223,-119.264798,1.4,1.26,105.6557471,106.9157471,1.9,0.707,7.02935,19.6216,106.9157471,0.7,-0.1,0.0,1.4,17.0,0.0,1.0,1.0500000000000005,0.0
26.0,2024.0,11.0,30.0,11.0,45.0,24.0,46.341223,-119.264798,1.4,1.26,105.6557471,106.9157471,1.9,0.7,7.02935,19.6216,106.9157471,0.7,0.0,0.0,1.4,17.0,0.0,1.0,1.0500000000000005,0.0
26.1,2024.0,11.0,30.0,11.0,45.0,24.0,46.341224,-119.264798,1.4,1.26,105.6557471,106.9157471,1.9,0.7,7.13673,19.7328,106.9157471,0.7,0.0,0.0,1.4,17.0,0.0,1.0,1.0500000000000005,0.0
26.2,2024.0,11.0,30.0,11.0,45.0,24.0,46.341225,-119.264798,1.4,1.26,105.6557471,106.9157471,1.9,0.7,7.24422,19.844,106.9157471,0.7,0.0,0.0,1.4,17.0,0.0,1.0,1.0500000000000005,0.0
26.3,2024.0,11.0,30.0,11.0,45.0,24.0,46.341226,-119.264798,1.4,1.25,105.6657471,106.9157471,1.9,0.7,7.35183,19.9552,106.9157471,0.7,0.0,0.0,1.4,17.0,0.0,1.0,1.0500000000000005,0.0
26.4,2024.0,11.0,30.0,11.0,45.0,24.0,46.341226,-119.264798,1.4,1.25,105.6657471,106.9157471,1.9,0.7,7.35183,19.9552,106.9157471,0.7,0.0,0.0,1.4,17.0,0.0,1.0,1.0500000000000005,0.0
26.5,2024.0,11.0,30.0,11.0,45.0,24.0,46.341227,-119.264798,1.4,1.25,105.6657471,106.9157471,1.9,0.7,7.45954,20.0664,106.9157471,0.7,0.0,0.0,1.4,17.0,0.0,1.0,1.0500000000000005,0.0
26.6,2024.0,11.0,30.0,11.0,45.0,24.0,46.341228,-119.264798,1.4,1.25,105.6657471,106.9157471,1.9,0.7,7.56735,20.1776,106.9157471,0.7,0.0,0.0,1.4,17.0,0.0,1.0,1.0500000000000005,0.0
26.7,2024.0,11.0,30.0,11.0,45.0,24.0,46.341228,-119.264799,1.4,1.24,105.6757471,106.9157471,1.9,0.707,7.54902,20.2544,106.9157471,0.7,-0.1,0.0,1.4,17.0,0.0,1.0,1.0500000000000005,0.0
26.8,2024.0,11.0,30.0,11.0,45.0,24.0,46.341229,-119.264799,1.4,1.24,105.6757471,106.9157471,1.9,0.707,7.65719,20.3656,106.9157471,0.7,-0.1,0.0,1.4,17.0,0.0,1.0,1.0500000000000005,0.0
26.9,2024.0,11.0,30.0,11.0,45.0,24.0,46.34123,-119.264799,1.4,1.24,105.6757471,106.9157471,1.9,0.707,7.76544,20.4768,106.9157471,0.7,-0.1,0.0,1.4,17.0,0.0,1.0,1.0500000000000005,0.0
27.0,2024.0,11.0,30.0,11.0,45.0,25.0,46.34123,-119.264799,1.4,1.24,105.6757471,106.9157471,1.9,0.707,7.76544,20.4768,106.9157471,0.7,-0.1,0.0,1.4,17.0,0.0,1.0,1.0500000000000005,0.0
27.1,2024.0,11.0,30.0,11.0,45.0,25.0,46.341231,-119.264799,1.4,1.23,105.6857471,106.9157471,1.9,0.707,7.87377,20.588,106.9157471,0.7,-0.1,0.0,1.4,17.0,0.0,1.0,1.0500000000000005,0.0
27.2,2024.0,11.0,30.0,11.0,45.0,25.0,46.341232,-119.264799,1.5,1.33,105.6857471,107.0157471,1.9,0.707,7.98218,20.6992,107.0157471,0.7,-0.1,0.0,1.5,17.0,0.0,1.0,1.0500000000000005,0.0
27.3,2024.0,11.0,30.0,11.0,45.0,25.0,46.341232,-119.264799,1.5,1.33,105.6857471,107.0157471,1.9,0.707,7.98218,20.6992,107.0157471,0.7,-0.1,0.0,1.5,17.0,0.0,1.0,1.0500000000000005,0.0
27.4,2024.0,11.0,30.0,11.0,45.0,25.0,46.341233,-119.2648,1.5,1.32,105.6957471,107.0157471,1.9,0.707,8.07426,20.8344,107.0157471,0.7,-0.1,0.0,1.5,17.0,0.0,1.0,1.0500000000000005,0.0
27.5,2024.0,11.0,30.0,11.0,45.0,25.0,46.341234,-119.2648,1.5,1.32,105.6957471,107.0157471,2.0,0.707,8.18304,20.9456,107.0157471,0.7,-0.1,0.0,1.5,17.0,0.0,1.0,1.0500000000000005,0.0
27.6,2024.0,11.0,30.0,11.0,45.0,25.0,46.341235,-119.2648,1.5,1.31,105.7057471,107.0157471,2.0,0.707,8.29189,21.0568,107.0157471,0.7,-0.1,0.0,1.5,17.0,0.0,1.0,1.0500000000000005,0.0
27.7,2024.0,11.0,30.0,11.0,45.0,25.0,46.341235,-119.2648,1.5,1.31,105.7057471,107.0157471,2.0,0.707,8.29189,21.0568,107.0157471,0.7,-0.1,0.0,1.5,17.0,0.0,1.0,1.0500000000000005,0.0
27.8,2024.0,11.0,30.0,11.0,45.0,25.0,46.341236,-119.2648,1.5,1.31,105.7057471,107.0157471,2.0,0.707,8.40079,21.168,107.0157471,0.7,-0.1,0.0,1.5,17.0,0.0,1.0,1.0500000000000005,0.0
27.9,2024.0,11.0,30.0,11.0,45.0,25.0,46.341237,-119.2648,1.5,1.31,105.7057471,107.0157471,2.0,0.707,8.50976,21.2792,107.0157471,0.7,-0.1,0.0,1.5,17.0,0.0,1.0,1.0500000000000005,0.0
28.0,2024.0,11.0,30.0,11.0,45.0,26.0,46.341237,-119.264801,1.5,1.3,105.7157471,107.0157471,2.0,0.707,8.49485,21.356,107.0157471,0.7,-0.1,0.0,1.5,17.0,0.0,1.0,1.0500000000000005,0.0
28.1,2024.0,11.0,30.0,11.0,45.0,26.0,46.341238,-119.264801,1.5,1.3,105.7157471,107.0157471,2.0,0.707,8.60406,21.4672,107.0157471,0.7,-0.1,0.0,1.5,17.0,0.0,1.0,1.0500000000000005,0.0
28.2,2024.0,11.0,30.0,11.0,45.0,26.0,46.341239,-119.264801,1.5,1.3,105.7157471,107.0157471,2.1,0.707,8.71332,21.5784,107.0157471,0.7,-0.1,0.0,1.5,17.0,0.0,1.0,1.0500000000000005,0.0
28.3,2024.0,11.0,30.0,11.0,45.0,26.0,46.34124,-119.264801,1.5,1.29,105.7257471,107.0157471,2.0,0.707,8.82263,21.6896,107.0157471,0.7,-0.1,0.0,1.5,17.0,0.0,1.0,1.0500000000000005,0.0
28.4,2024.0,11.0,30.0,11.0,45.0,26.0,46.34124,-119.264801,1.5,1.29,105.7257471,107.0157471,2.0,0.707,8.82263,21.6896,107.0157471,0.7,-0.1,0.0,1.5,17.0,0.0,1.0,1.0500000000000005,0.0
28.5,2024.0,11.0,30.0,11.0,45.0,26.0,46.341241,-119.264801,1.5,1.29,105.7257471,107.0157471,2.0,0.707,8.93199,21.8008,107.0157471,0.7,-0.1,0.0,1.5,17.0,0.0,1.0,1.0500000000000005,0.0
28.6,2024.0,11.0,30.0,11.0,45.0,26.0,46.341242,-119.264802,1.5,1.28,105.7357471,107.0157471,2.0,0.707,9.02802,21.9359,107.0157471,0.7,-0.1,0.0,1.5,17.0,0.0,1.0,1.0500000000000005,0.0
28.7,2024.0,11.0,30.0,11.0,45.0,26.0,46.341242,-119.264802,1.5,1.28,105.7357471,107.0157471,2.0,0.707,9.02802,21.9359,107.0157471,0.7,-0.1,0.0,1.5,17.0,0.0,1.0,1.0500000000000005,0.0
28.8,2024.0,11.0,30.0,11.0,45.0,26.0,46.341243,-119.264802,1.5,1.28,105.7357471,107.0157471,2.0,0.707,9.13762,22.0471,107.0157471,0.7,-0.1,0.0,1.5,17.0,0.0,1.0,1.0500000000000005,0.0
28.9,2024.0,11.0,30.0,11.0,45.0,26.0,46.341244,-119.264802,1.5,1.27,105.7457471,107.0157471,2.0,0.707,9.24727,22.1583,107.0157471,0.7,-0.1,0.0,1.5,17.0,0.0,1.0,1.0500000000000005,0.0
29.0,2024.0,11.0,30.0,11.0,45.0,27.0,46.341244,-119.264802,1.5,1.27,105.7457471,107.0157471,2.0,0.707,9.24727,22.1583,107.0157471,0.7,-0.1,0.0,1.5,17.0,0.0,1.0,1.0500000000000005,0.0
29.1,2024.0,11.0,30.0,11.0,45.0,27.0,46.341245,-119.264802,1.5,1.27,105.7457471,107.0157471,2.0,0.707,9.35695,22.2695,107.0157471,0.7,-0.1,0.0,1.5,17.0,0.0,1.0,1.0500000000000005,0.0
29.2,2024.0,11.0,30.0,11.0,45.0,27.0,46.341246,-119.264802,1.5,1.27,105.7457471,107.0157471,2.0,0.707,9.46666,22.3807,107.0157471,0.7,-0.1,0.0,1.5,17.0,0.0,1.0,1.0500000000000005,0.0
29.3,2024.0,11.0,30.0,11.0,45.0,27.0,46.341246,-119.264802,1.5,1.27,105.7457471,107.0157471,2.0,0.707,9.46666,22.3807,107.0157471,0.7,-0.1,0.0,1.5,17.0,0.0,1.0,1.0500000000000005,0.0
29.4,2024.0,11.0,30.0,11.0,45.0,27.0,46.341247,-119.264803,1.5,1.26,105.7557471,107.0157471,2.0,0.707,9.5644,22.5159,107.0157471,0.7,-0.1,0.0,1.5,17.0,0.0,1.0,1.0500000000000005,0.0
29.5,2024.0,11.0,30.0,11.0,45.0,27.0,46.341248,-119.264803,1.5,1.26,105.7557471,107.0157471,2.0,0.707,9.67432,22.6271,107.0157471,0.7,-0.1,0.0,1.5,17.0,0.0,1.0,1.0500000000000005,0.0
29.6,2024.0,11.0,30.0,11.0,45.0,27.0,46.341249,-119.264803,1.5,1.25,105.7657471,107.0157471,2.0,0.707,9.78427,22.7383,107.0157471,0.7,-0.1,0.0,1.5,17.0,0.0,1.0,1.0500000000000005,0.0
29.7,2024.0,11.0,30.0,11.0,45.0,27.0,46.341249,-119.264803,1.5,1.25,105.7657471,107.0157471,1.9,0.707,9.78427,22.7383,107.0157471,0.7,-0.1,0.0,1.5,17.0,0.0,1.0,1.0500000000000005,0.0
29.8,2024.0,11.0,30.0,11.0,45.0,27.0,46.34125,-119.264803,1.5,1.25,105.7657471,107.0157471,2.0,0.707,9.89425,22.8495,107.0157471,0.7,-0.1,0.0,1.5,17.0,0.0,1.0,1.0500000000000005,0.0
29.9,2024.0,11.0,30.0,11.0,45.0,27.0,46.341251,-119.264804,1.5,1.24,105.7757471,107.0157471,2.0,0.707,9.99335,22.9846,107.0157471,0.7,-0.1,0.0,1.5,17.0,0.0,1.0,1.0500000000000005,0.0
30.0,2024.0,11.0,30.0,11.0,45.0,28.0,46.341251,-119.264804,1.4,1.14,105.7757471,106.9157471,2.0,0.707,9.99335,22.9846,106.9157471,0.7,-0.1,0.0,1.4,17.0,0.0,1.0,1.0500000000000005,0.0
30.1,2024.0,11.0,30.0,11.0,45.0,28.0,46.341252,-119.264804,1.4,1.14,105.7757471,106.9157471,2.0,0.714,10.1035,23.0958,106.9157471,0.7,-0.1,0.1,1.4,17.0,0.0,1.0,1.0450000000000004,0.0
30.2,2024.0,11.0,30.0,11.0,45.0,28.0,46.341253,-119.264804,1.4,1.13,105.7857471,106.9157471,2.0,0.714,10.2137,23.207,106.9157471,0.7,-0.1,0.1,1.4,17.0,0.0,1.0,1.0350000000000006,0.0
30.3,2024.0,11.0,30.0,11.0,45.0,28.0,46.341253,-119.264804,1.4,1.13,105.7857471,106.9157471,1.9,0.707,10.2137,23.207,106.9157471,0.7,-0.1,0.0,1.4,17.0,0.0,1.0,1.0300000000000005,0.0
30.4,2024.0,11.0,30.0,11.0,45.0,28.0,46.341254,-119.264805,1.4,1.13,105.7857471,106.9157471,2.0,0.707,10.3139,23.3422,106.9157471,0.7,-0.1,0.0,1.4,17.0,0.0,1.0,1.0300000000000005,0.0
30.5,2024.0,11.0,30.0,11.0,45.0,28.0,46.341255,-119.264805,1.4,1.12,105.7957471,106.9157471,1.9,0.707,10.4242,23.4534,106.9157471,0.7,-0.1,0.0,1.4,17.0,0.0,1.0,1.0300000000000005,0.0
30.6,2024.0,11.0,30.0,11.0,45.0,28.0,46.341255,-119.264805,1.4,1.12,105.7957471,106.9157471,1.9,0.707,10.4242,23.4534,106.9157471,0.7,-0.1,0.0,1.4,17.0,0.0,1.0,1.0300000000000005,0.0
30.7,2024.0,11.0,30.0,11.0,45.0,28.0,46.341256,-119.264805,1.4,1.12,105.7957471,106.9157471,1.9,0.707,10.5345,23.5646,106.9157471,0.7,-0.1,0.0,1.4,17.0,0.0,1.0,1.0300000000000005,0.0
30.8,2024.0,11.0,30.0,11.0,45.0,28.0,46.341257,-119.264806,1.4,1.11,105.8057471,106.9157471,1.9,0.707,10.6358,23.6997,106.9157471,0.7,-0.1,0.0,1.4,17.0,0.0,1.0,1.0300000000000005,0.0
30.9,2024.0,11.0,30.0,11.0,45.0,28.0,46.341258,-119.264806,1.4,1.11,105.8057471,106.9157471,1.9,0.707,10.7462,23.8109,106.9157471,0.7,-0.1,0.0,1.4,17.0,0.0,1.0,1.0300000000000005,0.0
31.0,2024.0,11.0,30.0,11.0,45.0,29.0,46.341258,-119.264806,1.4,1.11,105.8057471,106.9157471,1.9,0.707,10.7462,23.8109,106.9157471,0.7,-0.1,0.0,1.4,17.0,0.0,1.0,1.0300000000000005,0.0
31.1,2024.0,11.0,30.0,11.0,45.0,29.0,46.341259,-119.264806,1.4,1.11,105.8057471,106.9157471,1.9,0.707,10.8567,23.9221,106.9157471,0.7,-0.1,0.0,1.4,17.0,0.0,1.0,1.0300000000000005,0.0
31.200000000000003,2024.0,11.0,30.0,11.0,45.0,29.0,46.34126,-119.264807,1.4,1.1,105.8157471,106.9157471,1.9,0.707,10.9589,24.0573,106.9157471,0.7,-0.1,0.0,1.4,17.0,0.0,1.0,1.0300000000000005,0.0
31.299999999999997,2024.0,11.0,30.0,11.0,45.0,29.0,46.34126,-119.264807,1.4,1.1,105.8157471,106.9157471,1.9,0.707,10.9589,24.0573,106.9157471,0.7,-0.1,0.0,1.4,17.0,0.0,1.0,1.0300000000000005,0.0
31.4,2024.0,11.0,30.0,11.0,45.0,29.0,46.341261,-119.264807,1.4,1.1,105.8157471,106.9157471,1.9,0.707,11.0695,24.1685,106.9157471,0.7,-0.1,0.0,1.4,17.0,0.0,1.0,1.0300000000000005,0.0
31.5,2024.0,11.0,30.0,11.0,45.0,29.0,46.341262,-119.264807,1.4,1.09,105.8257471,106.9157471,1.9,0.707,11.1801,24.2797,106.9157471,0.7,-0.1,0.0,1.4,17.0,0.0,1.0,1.0300000000000005,0.0
31.6,2024.0,11.0,30.0,11.0,45.0,29.0,46.341262,-119.264807,1.4,1.09,105.8257471,106.9157471,1.9,0.728,11.1801,24.2797,106.9157471,0.7,-0.2,0.0,1.4,17.0,0.0,1.0,1.0300000000000005,0.0
31.700000000000003,2024.0,11.0,30.0,11.0,45.0,29.0,46.341263,-119.264808,1.4,1.08,105.8357471,106.9157471,1.9,0.728,11.2831,24.4148,106.9157471,0.7,-0.2,0.0,1.4,17.0,0.0,1.0,1.0300000000000005,0.0
31.799999999999997,2024.0,11.0,30.0,11.0,45.0,29.0,46.341264,-119.264808,1.4,1.08,105.8357471,106.9157471,1.9,0.728,11.3938,24.526,106.9157471,0.7,-0.2,0.0,1.4,17.0,0.0,1.0,1.0300000000000005,0.0
31.9,2024.0,11.0,30.0,11.0,45.0,29.0,46.341264,-119.264808,1.4,1.08,105.8357471,106.9157471,1.9,0.728,11.3938,24.526,106.9157471,0.7,-0.2,0.0,1.4,17.0,0.0,1.0,1.0300000000000005,0.0
32.0,2024.0,11.0,30.0,11.0,45.0,30.0,46.341265,-119.264809,1.4,1.07,105.8457471,106.9157471,1.9,0.728,11.4976,24.6611,106.9157471,0.7,-0.2,0.0,1.4,17.0,0.0,1.0,1.0300000000000005,0.0
32.1,2024.0,11.0,30.0,11.0,45.0,30.0,46.341266,-119.264809,1.3,0.97,105.8457471,106.8157471,1.9,0.728,11.6084,24.7723,106.8157471,0.7,-0.2,0.0,1.3,17.0,0.0,1.0,1.0300000000000005,0.0
32.2,2024.0,11.0,30.0,11.0,45.0,30.0,46.341266,-119.264809,1.4,1.07,105.8457471,106.9157471,1.9,0.707,11.6084,24.7723,106.9157471,0.7,-0.1,0.0,1.4,17.0,0.0,1.0,1.0300000000000005,0.0
32.3,2024.0,11.0,30.0,11.0,45.0,30.0,46.341267,-119.264809,1.4,1.07,105.8457471,106.9157471,1.9,0.707,11.7192,24.8836,106.9157471,0.7,-0.1,0.0,1.4,17.0,0.0,1.0,1.0300000000000005,0.0
32.4,2024.0,11.0,30.0,11.0,45.0,30.0,46.341268,-119.264809,1.4,1.06,105.8557471,106.9157471,1.9,0.707,11.83,24.9948,106.9157471,0.7,-0.1,0.0,1.4,17.0,0.0,1.0,1.0300000000000005,0.0
32.5,2024.0,11.0,30.0,11.0,45.0,30.0,46.341269,-119.26481,1.4,1.06,105.8557471,106.9157471,1.9,0.707,11.9347,25.1299,106.9157471,0.7,-0.1,0.0,1.4,17.0,0.0,1.0,1.0300000000000005,0.0
32.6,2024.0,11.0,30.0,11.0,45.0,30.0,46.341269,-119.26481,1.4,1.06,105.8557471,106.9157471,1.9,0.707,11.9347,25.1299,106.9157471,0.7,-0.1,0.0,1.4,17.0,0.0,1.0,1.0300000000000005,0.0
32.7,2024.0,11.0,30.0,11.0,45.0,30.0,46.34127,-119.26481,1.4,1.05,105.8657471,106.9157471,1.9,0.707,12.0455,25.2411,106.9157471,0.7,-0.1,0.0,1.4,17.0,0.0,1.0,1.0300000000000005,0.0
