time(millisecond),datetime(utc),latitude,longitude,height_above_takeoff(meters),height_above_ground_at_drone_location(meters),ground_elevation_at_drone_location(meters),altitude_above_seaLevel(meters),height_sonar(meters),speed(m/s),distance(meters),mileage(meters),satellites,gpslevel,voltage(v),max_altitude(meters),max_ascent(meters),max_speed(m/s),max_distance(meters), xSpeed(m/s), ySpeed(m/s), zSpeed(m/s), compass_heading(degrees), pitch(degrees), roll(degrees),isPhoto,isVideo,rc_elevator,rc_aileron,rc_throttle,rc_rudder,rc_elevator(percent),rc_aileron(percent),rc_throttle(percent),rc_rudder(percent),gimbal_heading(degrees),gimbal_pitch(degrees),gimbal_roll(degrees),battery_percent,voltageCell1,voltageCell2,voltageCell3,voltageCell4,voltageCell5,voltageCell6,current(A),battery_temperature(c),altitude(meters),ascent(meters),flycStateRaw,flycState,message
0,2024-11-30 19:44:57,46.341162,-119.264822,0.4,0.4,105.5157471,105.9157471,0.4,0.4,0,0,21,0,11.654,105.9157471,0.4,0.4,0,0,0,-0.4,166.6, -0.5, -1.6,0,0,1024,1024,1024,1024,0,0,0,0,142.1,-90,0,75,3.887,3.877,3.862,0,0,0,2.665,20,105.9157471,0.4,11,AutoTakeoff,
100,2024-11-30 19:44:58,46.341162,-119.264822,0.4,0.4,105.5157471,105.9157471,0.5,0.4,0,0,21,0,11.654,105.9157471,0.4,0.4,0,0,0,-0.4,166.6, -1.2, -1.6,0,0,1024,1024,1024,1024,0,0,0,0,142.1,-90,0,75,3.887,3.877,3.862,0,0,0,2.665,20,105.9157471,0.4,11,AutoTakeoff,
200,2024-11-30 19:44:58,46.341162,-119.264822,0.5,0.5,105.5157471,106.0157471,0.5,0.4,0,0,22,0,11.654,106.0157471,0.5,0.4,0,0,0,-0.4,166.6, -1.3, -1.2,0,0,1024,1024,1024,1024,0,0,0,0,142,-90,0,75,3.887,3.877,3.862,0,0,0,2.665,20,106.0157471,0.5,11,AutoTakeoff,
300,2024-11-30 19:44:58,46.341162,-119.264822,0.5,0.5,105.5157471,106.0157471,0.6,0.4,0,0,22,0,11.654,106.0157471,0.5,0.4,0,0,0,-0.4,166.6, -0.9, -0.9,0,0,1024,1024,1024,1024,0,0,0,0,142,-89.9,0,75,3.887,3.877,3.862,0,0,0,2.665,20,106.0157471,0.5,11,AutoTakeoff,
410,2024-11-30 19:44:58,46.341162,-119.264822,0.6,0.6,105.5157471,106.1157471,0.6,0.4,0,0,21,0,11.654,106.1157471,0.6,0.4,0,0,0,-0.4,166.7, -0.8, -0.7,0,0,1024,1024,1024,1024,0,0,0,0,141.9,-90,0,75,3.887,3.877,3.862,0,0,0,2.665,20,106.1157471,0.6,11,AutoTakeoff,
500,2024-11-30 19:44:58,46.341162,-119.264822,0.6,0.6,105.5157471,106.1157471,0.7,0.4,0,0,21,0,11.654,106.1157471,0.6,0.4,0,0,0,-0.4,166.6, -1.1, -0.7,0,0,1024,1024,1024,1024,0,0,0,0,141.9,-89.9,0,75,3.887,3.877,3.862,0,0,0,2.665,20,106.1157471,0.6,11,AutoTakeoff,
610,2024-11-30 19:44:58,46.341162,-119.264822,0.7,0.7,105.5157471,106.2157471,0.7,0.4,0,0,21,0,11.654,106.2157471,0.7,0.4,0,0,0,-0.4,166.6, -0.9, -0.6,0,0,1024,1024,1024,1024,0,0,0,0,141.9,-89.9,0,75,3.887,3.877,3.862,0,0,0,2.665,20,106.2157471,0.7,11,AutoTakeoff,
700,2024-11-30 19:44:58,46.341162,-119.264822,0.7,0.7,105.5157471,106.2157471,0.8,0.5,0,0,21,0,11.654,106.2157471,0.7,0.5,0,0,0,-0.5,166.7, -0.7, -0.5,0,1,1024,1024,1024,1024,0,0,0,0,141.8,-90,0,75,3.887,3.877,3.862,0,0,0,2.665,20,106.2157471,0.7,11,AutoTakeoff,
810,2024-11-30 19:44:58,46.341162,-119.264822,0.8,0.8,105.5157471,106.3157471,0.8,0.5,0,0,21,0,11.654,106.3157471,0.8,0.5,0,0,0,-0.5,166.6, -0.7, -0.2,0,1,1024,1024,1024,1024,0,0,0,0,141.8,-90,0,75,3.887,3.877,3.862,0,0,0,2.665,20,106.3157471,0.8,11,AutoTakeoff,
910,2024-11-30 19:44:58,46.341162,-119.264822,0.8,0.8,105.5157471,106.3157471,0.9,0.5,0,0,21,0,11.654,106.3157471,0.8,0.5,0,0,0,-0.5,166.6, -0.8, 0.1,0,1,1024,1024,1024,1024,0,0,0,0,141.8,-90,0,75,3.887,3.877,3.862,0,0,0,2.665,20,106.3157471,0.8,11,AutoTakeoff,
1000,2024-11-30 19:44:58,46.341162,-119.264822,0.9,0.9,105.5157471,106.4157471,0.9,0.4,0,0,22,0,11.525,106.4157471,0.9,0.5,0,0,0,-0.4,166.6, -0.9, 0.2,0,1,1024,1024,1024,1024,0,0,0,0,141.8,-89.9,0,75,3.887,3.877,3.862,0,0,0,6.012,20,106.4157471,0.9,11,AutoTakeoff,
1110,2024-11-30 19:44:59,46.341162,-119.264822,0.9,0.9,105.5157471,106.4157471,1,0.4,0,0,22,0,11.525,106.4157471,0.9,0.5,0,0,0,-0.4,166.7, -0.9, 0.1,0,1,1024,1024,1024,1024,0,0,0,0,141.7,-89.9,0,75,3.887,3.877,3.862,0,0,0,6.012,20,106.4157471,0.9,11,AutoTakeoff,
1200,2024-11-30 19:44:59,46.341162,-119.264822,1,1,105.5157471,106.5157471,1,0.4,0,0,22,0,11.525,106.5157471,1,0.5,0,0,0,-0.4,166.7, -1.1, 0.1,0,1,1024,1024,1024,1024,0,0,0,0,141.7,-89.9,0,75,3.887,3.877,3.862,0,0,0,6.012,20,106.5157471,1,11,AutoTakeoff,
1300,2024-11-30 19:44:59,46.341162,-119.264822,1,1,105.5157471,106.5157471,1.1,0.4,0,0,22,0,11.525,106.5157471,1,0.5,0,0,0,-0.4,166.6, -1.1, 0.2,0,1,1024,1024,1024,1024,0,0,0,0,141.7,-90,0,75,3.887,3.877,3.862,0,0,0,6.012,20,106.5157471,1,11,AutoTakeoff,
1410,2024-11-30 19:44:59,46.341162,-119.264822,1.1,1.1,105.5157471,106.6157471,1.1,0.4,0,0,22,0,11.525,106.6157471,1.1,0.5,0,0,0,-0.4,166.7, -0.8, 0.3,0,1,1024,1024,1024,1024,0,0,0,0,141.7,-89.9,0,75,3.887,3.877,3.862,0,0,0,6.012,20,106.6157471,1.1,6,P-GPS,
1500,2024-11-30 19:44:59,46.341162,-119.264822,1.1,1.1,105.5157471,106.6157471,1.1,0.2,0,0,22,0,11.525,106.6157471,1.1,0.5,0,0,0,-0.2,166.9, -0.8, 0.2,0,1,1024,1024,1024,1024,0,0,0,0,141.7,-90,0,75,3.887,3.877,3.862,0,0,0,6.012,20,106.6157471,1.1,6,P-GPS,
1610,2024-11-30 19:44:59,46.341162,-119.264822,1.1,1.1,105.5157471,106.6157471,1.2,0.1,0,0,22,0,11.525,106.6157471,1.1,0.5,0,0,0,-0.1,167.1, -0.8, -0.1,0,1,1024,1024,1024,1024,0,0,0,0,141.7,-90,0,75,3.887,3.877,3.862,0,0,0,6.012,20,106.6157471,1.1,17,Joystick,
1700,2024-11-30 19:44:59,46.341162,-119.264822,1.1,1.1,105.5157471,106.6157471,1.2,0,0,0,22,0,11.525,106.6157471,1.1,0.5,0,0,0,0,167.2, -0.3, -0.3,0,1,1024,1024,1024,1024,0,0,0,0,141.7,-89.9,0,75,3.887,3.877,3.862,0,0,0,6.012,20,106.6157471,1.1,17,Joystick,
1800,2024-11-30 19:44:59,46.341162,-119.264822,1.2,1.2,105.5157471,106.7157471,1.2,0,0,0,23,0,11.525,106.7157471,1.2,0.5,0,0,0,0,167.2, -0.4, -0.3,0,1,1024,1024,1024,1024,0,0,0,0,141.7,-89.9,0,75,3.887,3.877,3.862,0,0,0,6.012,20,106.7157471,1.2,17,Joystick,
1910,2024-11-30 19:44:59,46.341162,-119.264822,1.2,1.2,105.5157471,106.7157471,1.2,0.1,0,0,23,0,11.525,106.7157471,1.2,0.5,0,0,0,-0.1,167.1, -0.7, 0,0,1,1024,1024,1024,1024,0,0,0,0,141.7,-89.9,0,75,3.887,3.877,3.862,0,0,0,6.012,20,106.7157471,1.2,17,Joystick,
2000,2024-11-30 19:44:59,46.341162,-119.264822,1.2,1.2,105.5157471,106.7157471,1.2,0.2,0,0,23,0,11.525,106.7157471,1.2,0.5,0,0,0,-0.2,167.3, -0.8, 0.1,0,1,1024,1024,1024,1024,0,0,0,0,141.7,-89.9,0,75,3.887,3.877,3.862,0,0,0,6.012,20,106.7157471,1.2,17,Joystick,
2110,2024-11-30 19:45:00,46.341162,-119.264822,1.2,1.2,105.5157471,106.7157471,1.2,0.3,0,0,23,0,11.525,106.7157471,1.2,0.5,0,0,0,-0.3,167.4, -0.7, 0.1,0,1,1024,1024,1024,1024,0,0,0,0,141.7,-90,0,75,3.887,3.877,3.862,0,0,0,6.012,20,106.7157471,1.2,17,Joystick,
2200,2024-11-30 19:45:00,46.341162,-119.264822,1.3,1.3,105.5157471,106.8157471,1.3,0.4,0,0,23,0,11.525,106.8157471,1.3,0.5,0,0,0,-0.4,167.2, -0.7, 0,0,1,1024,1024,1024,1024,0,0,0,0,141.7,-89.9,0,75,3.887,3.877,3.862,0,0,0,6.012,20,106.8157471,1.3,17,Joystick,
2300,2024-11-30 19:45:00,46.341162,-119.264822,1.3,1.3,105.5157471,106.8157471,1.3,0.5,0,0,23,0,11.525,106.8157471,1.3,0.5,0,0,0,-0.5,167.3, -0.6, 0,0,1,1024,1024,1024,1024,0,0,0,0,141.7,-89.9,0,75,3.887,3.877,3.862,0,0,0,6.012,20,106.8157471,1.3,17,Joystick,
2410,2024-11-30 19:45:00,46.341162,-119.264822,1.4,1.4,105.5157471,106.9157471,1.4,0.5,0,0,23,0,11.525,106.9157471,1.4,0.5,0,0,0,-0.5,167.2, -0.7, 0,0,1,1024,1024,1024,1024,0,0,0,0,141.7,-89.9,0,75,3.887,3.877,3.862,0,0,0,6.012,20,106.9157471,1.4,17,Joystick,
2500,2024-11-30 19:45:00,46.341162,-119.264822,1.4,1.4,105.5157471,106.9157471,1.4,0.4,0,0,23,0,11.525,106.9157471,1.4,0.5,0,0,0,-0.4,167.3, -0.6, -0.1,0,1,1024,1024,1024,1024,0,0,0,0,141.7,-89.9,0,75,3.887,3.877,3.862,0,0,0,6.012,20,106.9157471,1.4,17,Joystick,
2610,2024-11-30 19:45:00,46.341162,-119.264822,1.4,1.4,105.5157471,106.9157471,1.5,0.3,0,0,23,0,11.525,106.9157471,1.4,0.5,0,0,0,-0.3,167.2, -0.5, -0.2,0,1,1024,1024,1024,1024,0,0,0,0,141.7,-90,0,75,3.887,3.877,3.862,0,0,0,6.012,20,106.9157471,1.4,17,Joystick,
2700,2024-11-30 19:45:00,46.341162,-119.264822,1.5,1.5,105.5157471,107.0157471,1.5,0.2,0,0,23,0,11.525,107.0157471,1.5,0.5,0,0,0,-0.2,165.1, -2, -0.8,0,1,1024,1024,1024,1024,0,0,0,0,141.7,-90,0,75,3.887,3.877,3.862,0,0,0,6.012,20,107.0157471,1.5,17,Joystick,
2800,2024-11-30 19:45:00,46.341162,-119.264822,1.5,1.5,105.5157471,107.0157471,1.5,0.1,0,0,22,0,11.525,107.0157471,1.5,0.5,0,0,0,-0.1,162.3, -3.8, -1.9,0,1,1024,1024,1024,1024,0,0,0,0,141.6,-89.9,0,75,3.887,3.877,3.862,0,0,0,6.012,20,107.0157471,1.5,17,Joystick,
2910,2024-11-30 19:45:00,46.341162,-119.264823,1.5,1.49,105.5257471,107.0157471,1.5,0.1,0.0767726,0.0767726,22,0,11.525,107.0157471,1.5,0.5,0.0767726,0,0,-0.1,159.6, -5.5, -2.5,0,1,1024,1024,1024,1024,0,0,0,0,140.3,-89.9,0,75,3.887,3.877,3.862,0,0,0,6.012,20,107.0157471,1.5,17,Joystick,
3000,2024-11-30 19:45:00,46.341162,-119.264823,1.5,1.49,105.5257471,107.0157471,1.5,0.141,0.0767726,0.0767726,22,0,11.485,107.0157471,1.5,0.5,0.0767726,-0.1,0.1,0,157.1, -6, -2.2,0,1,1024,1024,1024,1024,0,0,0,0,137.3,-89.9,0,75,3.887,3.877,3.862,0,0,0,7.303,20,107.0157471,1.5,17,Joystick,
3110,2024-11-30 19:45:01,46.341162,-119.264822,1.5,1.5,105.5157471,107.0157471,1.5,0.224,0,0.153545,22,0,11.485,107.0157471,1.5,0.5,0.0767726,-0.1,0.2,0,154.9, -8.6, -3.1,0,1,1024,1024,1024,1024,0,0,0,0,134.6,-90,0,75,3.887,3.877,3.862,0,0,0,7.303,20,107.0157471,1.5,17,Joystick,
3200,2024-11-30 19:45:01,46.341162,-119.264822,1.5,1.5,105.5157471,107.0157471,1.5,0.361,0,0.153545,22,0,11.485,107.0157471,1.5,0.5,0.0767726,-0.2,0.3,0,152.8, -9.2, -2.7,0,1,1024,1024,1024,1024,0,0,0,0,132.3,-90,0,75,3.887,3.877,3.862,0,0,0,7.303,20,107.0157471,1.5,17,Joystick,
3300,2024-11-30 19:45:01,46.341161,-119.264821,1.5,1.5,105.5157471,107.0157471,1.5,0.5,0.135133,0.288678,22,0,11.485,107.0157471,1.5,0.5,0.135133,-0.3,0.4,0,150.9, -9.7, -2.4,0,1,1024,1024,1024,1024,0,0,0,0,130,-89.9,0,75,3.887,3.877,3.862,0,0,0,7.303,20,107.0157471,1.5,17,Joystick,
3410,2024-11-30 19:45:01,46.341161,-119.264821,1.5,1.5,105.5157471,107.0157471,1.5,0.64,0.135133,0.288678,22,0,11.485,107.0157471,1.5,0.64,0.135133,-0.4,0.5,0,149.1, -10.3, -2,0,1,1024,1024,1024,1024,0,0,0,0,128.1,-89.9,0,75,3.887,3.877,3.862,0,0,0,7.303,20,107.0157471,1.5,17,Joystick,
3500,2024-11-30 19:45:01,46.341161,-119.26482,1.5,1.51,105.5057471,107.0157471,1.5,0.781,0.189586,0.36545,22,0,11.485,107.0157471,1.5,0.781,0.189586,-0.5,0.6,0,147.5, -10.4, -1.5,0,1,1024,1024,1024,1024,0,0,0,0,126.3,-89.9,0,75,3.887,3.877,3.862,0,0,0,7.303,20,107.0157471,1.5,17,Joystick,
3610,2024-11-30 19:45:01,46.34116,-119.264819,1.5,1.52,105.4957471,107.0157471,1.5,0.922,0.320177,0.500583,22,0,11.485,107.0157471,1.5,0.922,0.320177,-0.6,0.7,0,145.9, -10.4, -1.2,0,1,1024,1024,1024,1024,0,0,0,0,124.7,-89.9,0,75,3.887,3.877,3.862,0,0,0,7.303,20,107.0157471,1.5,17,Joystick,
3710,2024-11-30 19:45:01,46.34116,-119.264818,1.5,1.52,105.4957471,107.0157471,1.5,1.063,0.379172,0.577355,22,0,11.485,107.0157471,1.5,1.063,0.379172,-0.7,0.8,0,144.6, -10.5, -0.8,0,1,1024,1024,1024,1024,0,0,0,0,123.3,-90,0,75,3.887,3.877,3.862,0,0,0,7.303,20,107.0157471,1.5,17,Joystick,
3800,2024-11-30 19:45:01,46.341159,-119.264817,1.5,1.53,105.4857471,107.0157471,1.5,1.204,0.508578,0.712488,22,0,11.485,107.0157471,1.5,1.204,0.508578,-0.8,0.9,0,143.5, -10.9, -0.2,0,1,1024,1024,1024,1024,0,0,0,0,121.9,-90,0,75,3.887,3.877,3.862,0,0,0,7.303,20,107.0157471,1.5,17,Joystick,
3910,2024-11-30 19:45:01,46.341159,-119.264816,1.5,1.53,105.4857471,107.0157471,1.6,1.345,0.568758,0.789261,22,0,11.485,107.0157471,1.5,1.345,0.568758,-0.9,1,0,142.4, -10.6, 0,0,1,1024,1024,1024,1024,0,0,0,0,120.8,-89.9,0,75,3.887,3.877,3.862,0,0,0,7.303,20,107.0157471,1.5,17,Joystick,
4000,2024-11-30 19:45:01,46.341158,-119.264815,1.5,1.54,105.4757471,107.0157471,1.6,1.556,0.697622,0.924393,22,0,11.485,107.0157471,1.5,1.556,0.697622,-1.1,1.1,0,141.4, -10.6, 0.2,0,1,1024,1024,1024,1024,0,0,0,0,119.8,-89.9,0,75,3.887,3.877,3.862,0,0,0,7.303,20,107.0157471,1.5,17,Joystick,
4110,2024-11-30 19:45:02,46.341157,-119.264813,1.5,1.55,105.4657471,107.0157471,1.6,1.697,0.886897,1.11398,22,0,11.485,107.0157471,1.5,1.697,0.886897,-1.2,1.2,0,140.5, -10.9, 0.4,0,1,1024,1024,1024,1024,0,0,0,0,118.8,-89.9,0,75,3.887,3.877,3.862,0,0,0,7.303,20,107.0157471,1.5,17,Joystick,
4200,2024-11-30 19:45:02,46.341156,-119.264812,1.5,1.56,105.4557471,107.0157471,1.6,1.838,1.01716,1.24911,23,0,11.485,107.0157471,1.5,1.838,1.01716,-1.3,1.3,0,139.7, -10.5, 0.4,0,1,1024,1024,1024,1024,0,0,0,0,117.9,-89.9,0,75,3.887,3.877,3.862,0,0,0,7.303,20,107.0157471,1.5,17,Joystick,
4310,2024-11-30 19:45:02,46.341155,-119.26481,1.5,1.57,105.4457471,107.0157471,1.6,1.98,1.20611,1.4387,23,0,11.485,107.0157471,1.5,1.98,1.20611,-1.4,1.4,0,139.1, -10, 0.4,0,1,1024,1024,1024,1024,0,0,0,0,117.1,-89.9,0,75,3.887,3.877,3.862,0,0,0,7.303,20,107.0157471,1.5,17,Joystick,
4400,2024-11-30 19:45:02,46.341153,-119.264808,1.4,1.48,105.4357471,106.9157471,1.7,2.052,1.46865,1.70896,23,0,11.485,107.0157471,1.5,2.052,1.46865,-1.4,1.5,0,138.5, -8.6, 0.4,0,1,1024,1024,1024,1024,0,0,0,0,116.4,-89.9,0,75,3.887,3.877,3.862,0,0,0,7.303,20,106.9157471,1.4,17,Joystick,
4500,2024-11-30 19:45:02,46.341152,-119.264806,1.4,1.49,105.4257471,106.9157471,1.7,2.193,1.65697,1.89855,23,0,11.485,107.0157471,1.5,2.193,1.65697,-1.5,1.6,0,138.1, -7.1, 0.6,0,1,1024,1024,1024,1024,0,0,0,0,115.8,-89.9,0,75,3.887,3.877,3.862,0,0,0,7.303,20,106.9157471,1.4,17,Joystick,
4610,2024-11-30 19:45:02,46.341151,-119.264804,1.4,1.5,105.4157471,106.9157471,1.7,2.193,1.84555,2.08814,23,0,11.485,107.0157471,1.5,2.193,1.84555,-1.5,1.6,0,137.7, -5.9, 1.1,0,1,1024,1024,1024,1024,0,0,0,0,115.2,-89.9,0,75,3.887,3.877,3.862,0,0,0,7.303,20,106.9157471,1.4,17,Joystick,
4700,2024-11-30 19:45:02,46.341149,-119.264802,1.4,1.52,105.3957471,106.9157471,1.7,2.263,2.10893,2.3584,23,0,11.485,107.0157471,1.5,2.263,2.10893,-1.6,1.6,0,137.3, -5.3, 1.4,0,1,1024,1024,1024,1024,0,0,0,0,114.7,-89.9,0,75,3.887,3.877,3.862,0,0,0,7.303,20,106.9157471,1.4,17,Joystick,
4800,2024-11-30 19:45:02,46.341148,-119.2648,1.4,1.53,105.3857471,106.9157471,1.7,2.263,2.29709,2.54799,23,0,11.485,107.0157471,1.5,2.263,2.29709,-1.6,1.6,0,136.9, -5, 1.1,0,1,1024,1024,1024,1024,0,0,0,0,114.3,-89.9,0,75,3.887,3.877,3.862,0,0,0,7.303,20,106.9157471,1.4,17,Joystick,
4910,2024-11-30 19:45:02,46.341146,-119.264798,1.4,1.54,105.3757471,106.9157471,1.7,2.263,2.56142,2.81825,23,0,11.485,107.0157471,1.5,2.263,2.56142,-1.6,1.6,0,136.5, -4.7, 0.9,0,1,1024,1024,1024,1024,0,0,0,0,113.9,-89.9,0,75,3.887,3.877,3.862,0,0,0,7.303,20,106.9157471,1.4,17,Joystick,
5000,2024-11-30 19:45:02,46.341145,-119.264796,1.4,1.55,105.3657471,106.9157471,1.7,2.263,2.74925,3.00784,23,0,11.464,107.0157471,1.5,2.263,2.74925,-1.6,1.6,0,136.2, -4.2, 0.4,0,1,1024,1024,1024,1024,0,0,0,0,113.5,-89.9,0,75,3.887,3.877,3.862,0,0,0,7.338,20,106.9157471,1.4,17,Joystick,
5110,2024-11-30 19:45:03,46.341143,-119.264794,1.4,1.57,105.3457471,106.9157471,1.8,2.263,3.01419,3.2781,23,0,11.464,107.0157471,1.5,2.263,3.01419,-1.6,1.6,0,136, -2.4, 0.7,0,1,1024,1024,1024,1024,0,0,0,0,113.1,-89.9,0,75,3.887,3.877,3.862,0,0,0,7.338,20,106.9157471,1.4,17,Joystick,
5200,2024-11-30 19:45:03,46.341142,-119.264792,1.4,1.58,105.3357471,106.9157471,1.8,2.263,3.20177,3.46769,23,0,11.464,107.0157471,1.5,2.263,3.20177,-1.6,1.6,0,136, -0.5, 1.2,0,1,1024,1024,1024,1024,0,0,0,0,112.8,-90,0,75,3.887,3.877,3.862,0,0,0,7.338,20,106.9157471,1.4,17,Joystick,
5300,2024-11-30 19:45:03,46.34114,-119.264789,1.4,1.6,105.3157471,106.9157471,1.8,2.263,3.52195,3.78787,23,0,11.464,107.0157471,1.5,2.263,3.52195,-1.6,1.6,0,135.9, 0.6, 1.3,0,1,1024,1024,1024,1024,0,0,0,0,112.5,-90,0,75,3.887,3.877,3.862,0,0,0,7.338,20,106.9157471,1.4,17,Joystick,
5410,2024-11-30 19:45:03,46.341139,-119.264787,1.4,1.61,105.3057471,106.9157471,1.8,2.121,3.70975,3.97745,23,0,11.464,107.0157471,1.5,2.263,3.70975,-1.5,1.5,0,135.8, 1.6, 1.1,0,1,1024,1024,1024,1024,0,0,0,0,112.3,-90,0,75,3.887,3.877,3.862,0,0,0,7.338,20,106.9157471,1.4,17,Joystick,
5500,2024-11-30 19:45:03,46.341138,-119.264785,1.4,1.62,105.2957471,106.9157471,1.8,2.052,3.89772,4.16704,23,0,11.464,107.0157471,1.5,2.263,3.89772,-1.5,1.4,0,135.7, 2.3, 0.7,0,1,1024,1024,1024,1024,0,0,0,0,112.2,-90,0,75,3.887,3.877,3.862,0,0,0,7.338,20,106.9157471,1.4,17,Joystick,
5610,2024-11-30 19:45:03,46.341136,-119.264783,1.4,1.63,105.2857471,106.9157471,1.8,1.98,4.1623,4.4373,23,0,11.464,107.0157471,1.5,2.263,4.1623,-1.4,1.4,0,135.5, 2.6, 0.4,0,1,1024,1024,1024,1024,0,0,0,0,112.1,-90,0,75,3.887,3.877,3.862,0,0,0,7.338,20,106.9157471,1.4,17,Joystick,
5700,2024-11-30 19:45:03,46.341135,-119.264781,1.4,1.64,105.2757471,106.9157471,1.8,1.838,4.35009,4.62689,23,0,11.464,107.0157471,1.5,2.263,4.35009,-1.3,1.3,0,135.4, 3.2, 0.4,0,1,1024,1024,1024,1024,0,0,0,0,111.9,-90,0,75,3.887,3.877,3.862,0,0,0,7.338,20,106.9157471,1.4,17,Joystick,
5810,2024-11-30 19:45:03,46.341134,-119.26478,1.4,1.65,105.2657471,106.9157471,1.9,1.697,4.48248,4.76202,23,0,11.464,107.0157471,1.5,2.263,4.48248,-1.2,1.2,0,135.3, 4.1, 0.6,0,1,1024,1024,1024,1024,0,0,0,0,111.8,-90,0,75,3.887,3.877,3.862,0,0,0,7.338,20,106.9157471,1.4,17,Joystick,
5900,2024-11-30 19:45:03,46.341132,-119.264778,1.4,1.66,105.2557471,106.9157471,1.8,1.697,4.74773,5.03229,23,0,11.464,107.0157471,1.5,2.263,4.74773,-1.2,1.2,0,135.2, 4, 0.6,0,1,1024,1024,1024,1024,0,0,0,0,111.7,-90,0,75,3.887,3.877,3.862,0,0,0,7.338,20,106.9157471,1.4,17,Joystick,
6000,2024-11-30 19:45:03,46.341131,-119.264776,1.4,1.67,105.2457471,106.9157471,1.8,1.556,4.93521,5.22187,23,0,11.464,107.0157471,1.5,2.263,4.93521,-1.1,1.1,0,135.2, 4.9, 0.7,0,1,1024,1024,1024,1024,0,0,0,0,111.6,-89.9,0,75,3.887,3.877,3.862,0,0,0,7.338,20,106.9157471,1.4,17,Joystick,
6110,2024-11-30 19:45:04,46.34113,-119.264775,1.4,1.68,105.2357471,106.9157471,1.8,1.414,5.06789,5.35701,23,0,11.464,107.0157471,1.5,2.263,5.06789,-1,1,0,135, 6.2, 0.7,0,1,1024,1024,1024,1024,0,0,0,0,111.4,-89.9,0,75,3.887,3.877,3.862,0,0,0,7.338,20,106.9157471,1.4,17,Joystick,
6200,2024-11-30 19:45:04,46.341129,-119.264773,1.4,1.69,105.2257471,106.9157471,1.9,1.273,5.25538,5.54659,23,0,11.464,107.0157471,1.5,2.263,5.25538,-0.9,0.9,0,134.9, 6.8, 0.5,0,1,1024,1024,1024,1024,0,0,0,0,111.3,-89.9,0,75,3.887,3.877,3.862,0,0,0,7.338,20,106.9157471,1.4,17,Joystick,
6300,2024-11-30 19:45:04,46.341128,-119.264772,1.4,1.7,105.2157471,106.9157471,1.9,1.131,5.38805,5.68173,23,0,11.464,107.0157471,1.5,2.263,5.38805,-0.8,0.8,0,134.8, 7.4, 0.3,0,1,1024,1024,1024,1024,0,0,0,0,111.2,-90,0,75,3.887,3.877,3.862,0,0,0,7.338,20,106.9157471,1.4,17,Joystick,
6410,2024-11-30 19:45:04,46.341128,-119.264771,1.4,1.7,105.2157471,106.9157471,1.9,0.99,5.44301,5.7585,23,0,11.464,107.0157471,1.5,2.263,5.44301,-0.7,0.7,0,134.7, 7.2, 0.4,0,1,1024,1024,1024,1024,0,0,0,0,111.1,-90,0,75,3.887,3.877,3.862,0,0,0,7.338,20,106.9157471,1.4,17,Joystick,
6500,2024-11-30 19:45:04,46.341127,-119.26477,1.4,1.71,105.2057471,106.9157471,1.9,0.849,5.57555,5.89363,23,0,11.464,107.0157471,1.5,2.263,5.57555,-0.6,0.6,0,134.7, 7.9, 0.6,0,1,1024,1024,1024,1024,0,0,0,0,111,-90,0,75,3.887,3.877,3.862,0,0,0,7.338,20,106.9157471,1.4,17,Joystick,
6610,2024-11-30 19:45:04,46.341126,-119.264769,1.4,1.72,105.1957471,106.9157471,1.9,0.64,5.70821,6.02876,23,0,11.464,107.0157471,1.5,2.263,5.70821,-0.4,0.5,0,134.6, 7.6, 0.7,0,1,1024,1024,1024,1024,0,0,0,0,110.8,-90,0,75,3.887,3.877,3.862,0,0,0,7.338,20,106.9157471,1.4,17,Joystick,
6700,2024-11-30 19:45:04,46.341126,-119.264768,1.4,1.72,105.1957471,106.9157471,1.9,0.5,5.76319,6.10554,23,0,11.464,107.0157471,1.5,2.263,5.76319,-0.3,0.4,0,134.5, 7.7, 0.5,0,1,1024,1024,1024,1024,0,0,0,0,110.7,-90,0,75,3.887,3.877,3.862,0,0,0,7.338,20,106.9157471,1.4,17,Joystick,
6800,2024-11-30 19:45:04,46.341125,-119.264768,1.4,1.73,105.1857471,106.9157471,1.9,0.361,5.84099,6.21674,23,0,11.464,107.0157471,1.5,2.263,5.84099,-0.2,0.3,0,134.4, 7.5, 0.5,0,1,1024,1024,1024,1024,0,0,0,0,110.6,-90,0,75,3.887,3.877,3.862,0,0,0,7.338,20,106.9157471,1.4,17,Joystick,
6910,2024-11-30 19:45:04,46.341125,-119.264767,1.4,1.73,105.1857471,106.9157471,1.9,0.224,5.89573,6.29352,23,0,11.464,107.0157471,1.5,2.263,5.89573,-0.1,0.2,0,134.3, 7.4, 0.8,0,1,1024,1024,1024,1024,0,0,0,0,110.5,-89.9,0,75,3.887,3.877,3.862,0,0,0,7.338,20,106.9157471,1.4,17,Joystick,
7000,2024-11-30 19:45:04,46.341125,-119.264767,1.4,1.73,105.1857471,106.9157471,1.9,0.1,5.89573,6.29352,23,0,11.458,107.0157471,1.5,2.263,5.89573,0,0.1,0,134.3, 7.2, 1.1,0,1,1024,1024,1024,1024,0,0,0,0,110.4,-90,0,75,3.887,3.877,3.862,0,0,0,7.437,20,106.9157471,1.4,17,Joystick,
7110,2024-11-30 19:45:05,46.341125,-119.264767,1.4,1.73,105.1857471,106.9157471,1.9,0,5.89573,6.29352,23,0,11.458,107.0157471,1.5,2.263,5.89573,0,0,0,134.3, 7.4, 1.3,0,1,1024,1024,1024,1024,0,0,0,0,110.3,-90,0,75,3.887,3.877,3.862,0,0,0,7.437,20,106.9157471,1.4,17,Joystick,
7200,2024-11-30 19:45:05,46.341125,-119.264766,1.4,1.73,105.1857471,106.9157471,1.9,0,5.95095,6.37029,23,0,11.458,107.0157471,1.5,2.263,5.95095,0,0,0,134.4, 7.6, 1.2,0,1,1024,1024,1024,1024,0,0,0,0,110.2,-90,0,75,3.887,3.877,3.862,0,0,0,7.437,20,106.9157471,1.4,17,Joystick,
7300,2024-11-30 19:45:05,46.341125,-119.264766,1.4,1.73,105.1857471,106.9157471,1.9,0.141,5.95095,6.37029,23,0,11.458,107.0157471,1.5,2.263,5.95095,0.1,-0.1,0,131.5, 5.9, 1.2,0,1,1024,1024,1024,1024,0,0,0,0,110.1,-90,0,75,3.887,3.877,3.862,0,0,0,7.437,20,106.9157471,1.4,17,Joystick,
7410,2024-11-30 19:45:05,46.341125,-119.264767,1.4,1.73,105.1857471,106.9157471,1.9,0.283,5.89573,6.44706,23,0,11.458,107.0157471,1.5,2.263,5.95095,0.2,-0.2,0,121.2, 4.7, -0.1,0,1,1024,1024,1024,1024,0,0,0,0,110,-89.9,0,75,3.887,3.877,3.862,0,0,0,7.437,20,106.9157471,1.4,17,Joystick,
7500,2024-11-30 19:45:05,46.341125,-119.264767,1.4,1.73,105.1857471,106.9157471,1.9,0.283,5.89573,6.44706,23,0,11.458,107.0157471,1.5,2.263,5.95095,0.2,-0.2,0,111, 3.6, -0.9,0,1,1024,1024,1024,1024,0,0,0,0,101.6,-90,0,75,3.887,3.877,3.862,0,0,0,7.437,20,106.9157471,1.4,17,Joystick,
7610,2024-11-30 19:45:05,46.341125,-119.264767,1.4,1.73,105.1857471,106.9157471,1.9,0.361,5.89573,6.44706,23,0,11.458,107.0157471,1.5,2.263,5.95095,0.3,-0.2,0,101, 2.3, -0.6,0,1,1024,1024,1024,1024,0,0,0,0,90.5,-90,0,75,3.887,3.877,3.862,0,0,0,7.437,20,106.9157471,1.4,17,Joystick,
7700,2024-11-30 19:45:05,46.341126,-119.264767,1.4,1.73,105.1857471,106.9157471,1.9,0.424,5.81866,6.55827,23,0,11.458,107.0157471,1.5,2.263,5.95095,0.3,-0.3,0,91, 1.5, -0.2,0,1,1024,1024,1024,1024,0,0,0,0,80.2,-89.9,0,75,3.887,3.877,3.862,0,0,0,7.437,20,106.9157471,1.4,17,Joystick,
7800,2024-11-30 19:45:05,46.341126,-119.264768,1.4,1.72,105.1957471,106.9157471,1.8,0.424,5.76319,6.63504,23,0,11.458,107.0157471,1.5,2.263,5.95095,0.3,-0.3,0,81.5, 1.2, 0.2,0,1,1024,1024,1024,1024,0,0,0,0,70.2,-89.9,0,75,3.887,3.877,3.862,0,0,0,7.437,20,106.9157471,1.4,17,Joystick,
7910,2024-11-30 19:45:05,46.341126,-119.264768,1.4,1.72,105.1957471,106.9157471,1.9,0.424,5.76319,6.63504,23,0,11.458,107.0157471,1.5,2.263,5.95095,0.3,-0.3,0,73.1, 0.8, 1,0,1,1024,1024,1024,1024,0,0,0,0,60.5,-89.9,0,75,3.887,3.877,3.862,0,0,0,7.437,20,106.9157471,1.4,17,Joystick,
8000,2024-11-30 19:45:05,46.341126,-119.264768,1.4,1.72,105.1957471,106.9157471,1.9,0.424,5.76319,6.63504,23,0,11.458,107.0157471,1.5,2.263,5.95095,0.3,-0.3,0,65.6, 0.6, 1.5,0,1,1024,1024,1024,1024,0,0,0,0,51.6,-89.9,0,75,3.887,3.877,3.862,0,0,0,7.437,20,106.9157471,1.4,17,Joystick,
8100,2024-11-30 19:45:06,46.341127,-119.264769,1.4,1.71,105.2057471,106.9157471,1.8,0.424,5.63078,6.77017,23,0,11.458,107.0157471,1.5,2.263,5.95095,0.3,-0.3,0,58.8, 0.6, 2.1,0,1,1024,1024,1024,1024,0,0,0,0,43.8,-89.9,0,75,3.887,3.877,3.862,0,0,0,7.437,20,106.9157471,1.4,17,Joystick,
8200,2024-11-30 19:45:06,46.341127,-119.264769,1.4,1.71,105.2057471,106.9157471,1.9,0.361,5.63078,6.77017,23,0,11.458,107.0157471,1.5,2.263,5.95095,0.3,-0.2,0,52.8, 0.7, 2.4,0,1,1024,1024,1024,1024,0,0,0,0,36.8,-89.9,0,75,3.887,3.877,3.862,0,0,0,7.437,20,106.9157471,1.4,17,Joystick,
8300,2024-11-30 19:45:06,46.341127,-119.26477,1.4,1.71,105.2057471,106.9157471,1.9,0.361,5.57555,6.84694,23,0,11.458,107.0157471,1.5,2.263,5.95095,0.3,-0.2,0,47.3, 0.9, 2.9,0,1,1024,1024,1024,1024,0,0,0,0,30.5,-89.9,0,75,3.887,3.877,3.862,0,0,0,7.437,20,106.9157471,1.4,17,Joystick,
8400,2024-11-30 19:45:06,46.341127,-119.26477,1.4,1.71,105.2057471,106.9157471,1.9,0.283,5.57555,6.84694,23,0,11.458,107.0157471,1.5,2.263,5.95095,0.2,-0.2,0,42.5, 1.4, 3,0,1,1024,1024,1024,1024,0,0,0,0,24.7,-89.9,0,75,3.887,3.877,3.862,0,0,0,7.437,20,106.9157471,1.4,17,Joystick,
8500,2024-11-30 19:45:06,46.341128,-119.26477,1.4,1.71,105.2057471,106.9157471,1.9,0.283,5.4985,6.95815,23,0,11.458,107.0157471,1.5,2.263,5.95095,0.2,-0.2,0,38.1, 1.8, 2.9,0,1,1024,1024,1024,1024,0,0,0,0,19.7,-89.9,0,75,3.887,3.877,3.862,0,0,0,7.437,20,106.9157471,1.4,17,Joystick,
8600,2024-11-30 19:45:06,46.341128,-119.264771,1.4,1.7,105.2157471,106.9157471,1.9,0.141,5.44301,7.03492,23,0,11.458,107.0157471,1.5,2.263,5.95095,0.1,-0.1,0,34.2, 1.9, 3,0,1,1024,1024,1024,1024,0,0,0,0,15.2,-89.9,0,75,3.887,3.877,3.862,0,0,0,7.437,20,106.9157471,1.4,17,Joystick,
8700,2024-11-30 19:45:06,46.341128,-119.264771,1.4,1.7,105.2157471,106.9157471,1.9,0.141,5.44301,7.03492,23,0,11.458,107.0157471,1.5,2.263,5.95095,0.1,-0.1,0,30.7, 2.1, 3.2,0,1,1024,1024,1024,1024,0,0,0,0,11,-89.9,0,75,3.887,3.877,3.862,0,0,0,7.437,20,106.9157471,1.4,17,Joystick,
8810,2024-11-30 19:45:06,46.341128,-119.264771,1.4,1.7,105.2157471,106.9157471,1.9,0.141,5.44301,7.03492,23,0,11.458,107.0157471,1.5,2.263,5.95095,0,-0.1,-0.1,27.6, 2.1, 2.9,0,1,1024,1024,1024,1024,0,0,0,0,7.4,-89.9,0,75,3.887,3.877,3.862,0,0,0,7.437,20,106.9157471,1.4,17,Joystick,
8900,2024-11-30 19:45:06,46.341128,-119.264772,1.4,1.7,105.2157471,106.9157471,1.9,0.141,5.38805,7.1117,23,0,11.458,107.0157471,1.5,2.263,5.95095,0,-0.1,-0.1,24.7, 1.9, 2.7,0,1,1024,1024,1024,1024,0,0,0,0,4.1,-89.9,0,75,3.887,3.877,3.862,0,0,0,7.437,20,106.9157471,1.4,17,Joystick,
9000,2024-11-30 19:45:06,46.341128,-119.264772,1.4,1.7,105.2157471,106.9157471,1.9,0.1,5.38805,7.1117,23,0,11.397,107.0157471,1.5,2.263,5.95095,0,0,-0.1,22.2, 1.7, 2.5,0,1,1024,1024,1024,1024,0,0,0,0,1.1,-89.9,0,75,3.887,3.877,3.862,0,0,0,7.748,20,106.9157471,1.4,17,Joystick,
9110,2024-11-30 19:45:07,46.341128,-119.264772,1.4,1.7,105.2157471,106.9157471,1.9,0,5.38805,7.1117,23,0,11.397,107.0157471,1.5,2.263,5.95095,0,0,0,20, 1.6, 2.4,0,1,1024,1024,1024,1024,0,0,0,0,358.7,-89.9,0,75,3.887,3.877,3.862,0,0,0,7.748,20,106.9157471,1.4,17,Joystick,
9200,2024-11-30 19:45:07,46.341128,-119.264772,1.4,1.7,105.2157471,106.9157471,1.9,0,5.38805,7.1117,23,0,11.397,107.0157471,1.5,2.263,5.95095,0,0,0,18.1, 1.6, 2.2,0,1,1024,1024,1024,1024,0,0,0,0,356.4,-89.9,0,75,3.887,3.877,3.862,0,0,0,7.748,20,106.9157471,1.4,17,Joystick,
9300,2024-11-30 19:45:07,46.341128,-119.264772,1.4,1.7,105.2157471,106.9157471,1.9,0,5.38805,7.1117,23,0,11.397,107.0157471,1.5,2.263,5.95095,0,0,0,16.3, 1.6, 2,0,1,1024,1024,1024,1024,0,0,0,0,354.3,-89.9,0,75,3.887,3.877,3.862,0,0,0,7.748,20,106.9157471,1.4,17,Joystick,
9410,2024-11-30 19:45:07,46.341128,-119.264772,1.4,1.7,105.2157471,106.9157471,1.9,0,5.38805,7.1117,23,0,11.397,107.0157471,1.5,2.263,5.95095,0,0,0,14.7, 1.6, 1.9,0,1,1024,1024,1024,1024,0,0,0,0,352.5,-89.9,0,75,3.887,3.877,3.862,0,0,0,7.748,20,106.9157471,1.4,17,Joystick,
9500,2024-11-30 19:45:07,46.341128,-119.264772,1.5,1.8,105.2157471,107.0157471,1.9,0.1,5.38805,7.1117,23,0,11.397,107.0157471,1.5,2.263,5.95095,-0.1,0,0,13.3, 1.6, 2,0,1,1024,1024,1024,1024,0,0,0,0,350.9,-89.9,0,75,3.887,3.877,3.862,0,0,0,7.748,20,107.0157471,1.5,17,Joystick,
9610,2024-11-30 19:45:07,46.341128,-119.264772,1.5,1.8,105.2157471,107.0157471,1.9,0.1,5.38805,7.1117,22,0,11.397,107.0157471,1.5,2.263,5.95095,-0.1,0,0,12, 1.6, 2,0,1,1024,1024,1024,1024,0,0,0,0,349.2,-89.9,0,75,3.887,3.877,3.862,0,0,0,7.748,20,107.0157471,1.5,17,Joystick,
9700,2024-11-30 19:45:07,46.341128,-119.264772,1.5,1.8,105.2157471,107.0157471,2,0.1,5.38805,7.1117,22,0,11.397,107.0157471,1.5,2.263,5.95095,-0.1,0,0,10.9, 1.4, 2,0,1,1024,1024,1024,1024,0,0,0,0,347.7,-89.9,0,75,3.887,3.877,3.862,0,0,0,7.748,20,107.0157471,1.5,17,Joystick,
9800,2024-11-30 19:45:07,46.341128,-119.264772,1.5,1.8,105.2157471,107.0157471,2,0.141,5.38805,7.1117,22,0,11.397,107.0157471,1.5,2.263,5.95095,-0.1,0.1,0,9.7, 1.2, 1.9,0,1,1024,1024,1024,1024,0,0,0,0,346.4,-89.9,0,75,3.887,3.877,3.862,0,0,0,7.748,20,107.0157471,1.5,17,Joystick,
9900,2024-11-30 19:45:07,46.341127,-119.264772,1.5,1.8,105.2157471,107.0157471,2,0.141,5.46666,7.2229,22,0,11.397,107.0157471,1.5,2.263,5.95095,-0.1,0.1,0,8.7, 0.9, 1.7,0,1,1024,1024,1024,1024,0,0,0,0,345.3,-89.9,0,75,3.887,3.877,3.862,0,0,0,7.748,20,107.0157471,1.5,17,Joystick,
10000,2024-11-30 19:45:07,46.341127,-119.264772,1.5,1.8,105.2157471,107.0157471,2,0.141,5.46666,7.2229,22,0,11.397,107.0157471,1.5,2.263,5.95095,-0.1,0.1,0,7.7, 0.7, 1.2,0,1,1024,1024,1024,1024,0,0,0,0,344.2,-89.9,0,75,3.887,3.877,3.862,0,0,0,7.748,20,107.0157471,1.5,17,Joystick,
10110,2024-11-30 19:45:08,46.341127,-119.264772,1.5,1.8,105.2157471,107.0157471,2,0.141,5.46666,7.2229,22,0,11.397,107.0157471,1.5,2.263,5.95095,-0.1,0.1,0,6.9, 0.5, 0.9,0,1,1024,1024,1024,1024,0,0,0,0,343.3,-89.9,0,75,3.887,3.877,3.862,0,0,0,7.748,20,107.0157471,1.5,17,Joystick,
10200,2024-11-30 19:45:08,46.341127,-119.264771,1.5,1.81,105.2057471,107.0157471,2,0.141,5.52084,7.29967,22,0,11.397,107.0157471,1.5,2.263,5.95095,-0.1,0.1,0,6.1, 0.2, 0.8,0,1,1024,1024,1024,1024,0,0,0,0,342.5,-89.9,0,75,3.887,3.877,3.862,0,0,0,7.748,20,107.0157471,1.5,17,Joystick,
10300,2024-11-30 19:45:08,46.341127,-119.264771,1.5,1.81,105.2057471,107.0157471,2,0.141,5.52084,7.29967,22,0,11.397,107.0157471,1.5,2.263,5.95095,-0.1,0.1,0,5.5, 0, 0.6,0,1,1024,1024,1024,1024,0,0,0,0,341.8,-90,0,75,3.887,3.877,3.862,0,0,0,7.748,20,107.0157471,1.5,17,Joystick,
10410,2024-11-30 19:45:08,46.341127,-119.264771,1.5,1.81,105.2057471,107.0157471,2,0.141,5.52084,7.29967,22,0,11.397,107.0157471,1.5,2.263,5.95095,-0.1,0.1,0,4.8, -0.2, 0.6,0,1,1024,1024,1024,1024,0,0,0,0,341.1,-90,0,75,3.887,3.877,3.862,0,0,0,7.748,20,107.0157471,1.5,17,Joystick,
10500,2024-11-30 19:45:08,46.341127,-119.264771,1.5,1.81,105.2057471,107.0157471,2,0.141,5.52084,7.29967,22,0,11.397,107.0157471,1.5,2.263,5.95095,-0.1,0.1,0,4.1, -0.5, 0.4,0,1,1024,1024,1024,1024,0,0,0,0,340.5,-89.9,0,75,3.887,3.877,3.862,0,0,0,7.748,20,107.0157471,1.5,17,Joystick,
10610,2024-11-30 19:45:08,46.341127,-119.26477,1.5,1.81,105.2057471,107.0157471,2,0.141,5.57555,7.37645,21,0,11.397,107.0157471,1.5,2.263,5.95095,-0.1,0.1,0,3.7, -0.6, 0.3,0,1,1024,1024,1024,1024,0,0,0,0,339.9,-89.9,0,75,3.887,3.877,3.862,0,0,0,7.748,20,107.0157471,1.5,17,Joystick,
10700,2024-11-30 19:45:08,46.341126,-119.26477,1.5,1.81,105.2057471,107.0157471,2,0.1,5.65374,7.48765,21,0,11.397,107.0157471,1.5,2.263,5.95095,0,0.1,0,3.3, -0.8, 0.1,0,1,1024,1024,1024,1024,0,0,0,0,339.4,-89.9,0,75,3.887,3.877,3.862,0,0,0,7.748,20,107.0157471,1.5,17,Joystick,
10800,2024-11-30 19:45:08,46.341126,-119.26477,1.5,1.81,105.2057471,107.0157471,2,0.1,5.65374,7.48765,21,0,11.397,107.0157471,1.5,2.263,5.95095,0,0.1,0,2.8, -0.9, 0,0,1,1024,1024,1024,1024,0,0,0,0,339,-89.9,0,75,3.887,3.877,3.862,0,0,0,7.748,20,107.0157471,1.5,17,Joystick,
10900,2024-11-30 19:45:08,46.341126,-119.264769,1.5,1.82,105.1957471,107.0157471,2,0.1,5.70821,7.56443,21,0,11.397,107.0157471,1.5,2.263,5.95095,0,0.1,0,2.5, -0.7, 0,0,1,1024,1024,1024,1024,0,0,0,0,338.6,-89.9,0,75,3.887,3.877,3.862,0,0,0,7.748,20,107.0157471,1.5,17,Joystick,
11000,2024-11-30 19:45:08,46.341126,-119.264769,1.5,1.82,105.1957471,107.0157471,2,0.1,5.70821,7.56443,21,0,11.429,107.0157471,1.5,2.263,5.95095,0,0.1,0,2.2, -0.6, -0.2,0,1,1024,1024,1024,1024,0,0,0,0,338.3,-89.9,0,75,3.823,3.811,3.796,0,0,0,7.503,20,107.0157471,1.5,17,Joystick,
11100,2024-11-30 19:45:09,46.341126,-119.264769,1.5,1.82,105.1957471,107.0157471,2,0.1,5.70821,7.56443,21,0,11.429,107.0157471,1.5,2.263,5.95095,0,0.1,0,1.9, -0.5, -0.4,0,1,1024,1024,1024,1024,0,0,0,0,338.1,-89.9,0,75,3.823,3.811,3.796,0,0,0,7.503,20,107.0157471,1.5,17,Joystick,
11200,2024-11-30 19:45:09,46.341126,-119.264769,1.5,1.82,105.1957471,107.0157471,2,0.1,5.70821,7.56443,21,0,11.429,107.0157471,1.5,2.263,5.95095,0,0.1,0,1.7, -0.6, -0.6,0,1,1024,1024,1024,1024,0,0,0,0,337.9,-89.9,0,75,3.823,3.811,3.796,0,0,0,7.503,20,107.0157471,1.5,17,Joystick,
11300,2024-11-30 19:45:09,46.341126,-119.264769,1.5,1.82,105.1957471,107.0157471,1.9,0.1,5.70821,7.56443,21,0,11.429,107.0157471,1.5,2.263,5.95095,0,0.1,0,1.4, -0.7, -0.9,0,1,1024,1024,1024,1024,0,0,0,0,337.6,-89.9,0,75,3.823,3.811,3.796,0,0,0,7.503,20,107.0157471,1.5,17,Joystick,
11410,2024-11-30 19:45:09,46.341126,-119.264768,1.5,1.82,105.1957471,107.0157471,1.9,0,5.76319,7.6412,21,0,11.429,107.0157471,1.5,2.263,5.95095,0,0,0,1.2, -0.6, -1,0,1,1024,1024,1024,1024,0,0,0,0,337.4,-89.9,0,75,3.823,3.811,3.796,0,0,0,7.503,20,107.0157471,1.5,17,Joystick,
11500,2024-11-30 19:45:09,46.341126,-119.264768,1.5,1.82,105.1957471,107.0157471,1.9,0,5.76319,7.6412,21,0,11.429,107.0157471,1.5,2.263,5.95095,0,0,0,1.2, -0.7, -1.2,0,1,1024,1024,1024,1024,0,0,0,0,337.2,-89.9,0,75,3.823,3.811,3.796,0,0,0,7.503,20,107.0157471,1.5,17,Joystick,
11610,2024-11-30 19:45:09,46.341126,-119.264768,1.4,1.72,105.1957471,106.9157471,1.9,0,5.76319,7.6412,21,0,11.429,107.0157471,1.5,2.263,5.95095,0,0,0,1.2, -0.8, -1.2,0,1,1024,1024,1024,1024,0,0,0,0,337.1,-90,0,75,3.823,3.811,3.796,0,0,0,7.503,20,106.9157471,1.4,17,Joystick,
11700,2024-11-30 19:45:09,46.341126,-119.264768,1.4,1.72,105.1957471,106.9157471,1.9,0.1,5.76319,7.6412,21,0,11.429,107.0157471,1.5,2.263,5.95095,0.1,0,0,1.2, -1, -1.2,0,1,1024,1024,1024,1024,0,0,0,0,337,-89.9,0,75,3.823,3.811,3.796,0,0,0,7.503,20,106.9157471,1.4,17,Joystick,
11800,2024-11-30 19:45:09,46.341126,-119.264768,1.4,1.72,105.1957471,106.9157471,1.9,0.1,5.76319,7.6412,21,0,11.429,107.0157471,1.5,2.263,5.95095,0.1,0,0,1.1, -0.9, -1.2,0,1,1024,1024,1024,1024,0,0,0,0,336.9,-89.9,0,75,3.823,3.811,3.796,0,0,0,7.503,20,106.9157471,1.4,17,Joystick,
11900,2024-11-30 19:45:09,46.341126,-119.264768,1.4,1.72,105.1957471,106.9157471,1.9,0.1,5.76319,7.6412,21,0,11.429,107.0157471,1.5,2.263,5.95095,0.1,0,0,1.1, -0.4, -1.1,0,1,1024,1024,1024,1024,0,0,0,0,336.8,-89.9,0,75,3.823,3.811,3.796,0,0,0,7.503,20,106.9157471,1.4,17,Joystick,
12000,2024-11-30 19:45:09,46.341126,-119.264768,1.4,1.72,105.1957471,106.9157471,1.9,0.1,5.76319,7.6412,21,0,11.429,107.0157471,1.5,2.263,5.95095,0.1,0,0,1.1, -0.1, -1,0,1,1024,1024,1024,1024,0,0,0,0,336.7,-90,0,75,3.823,3.811,3.796,0,0,0,7.503,20,106.9157471,1.4,17,Joystick,
12110,2024-11-30 19:45:10,46.341126,-119.264768,1.4,1.72,105.1957471,106.9157471,1.9,0.1,5.76319,7.6412,21,0,11.429,107.0157471,1.5,2.263,5.95095,0.1,0,0,1, 0, -1,0,1,1024,1024,1024,1024,0,0,0,0,336.6,-90,0,75,3.823,3.811,3.796,0,0,0,7.503,20,106.9157471,1.4,17,Joystick,
12200,2024-11-30 19:45:10,46.341127,-119.264768,1.4,1.72,105.1957471,106.9157471,1.9,0.1,5.6865,7.7524,21,0,11.429,107.0157471,1.5,2.263,5.95095,0.1,0,0,1, 0.1, -1,0,1,1024,1024,1024,1024,0,0,0,0,336.5,-89.9,0,75,3.823,3.811,3.796,0,0,0,7.503,20,106.9157471,1.4,17,Joystick,
12310,2024-11-30 19:45:10,46.341127,-119.264768,1.4,1.72,105.1957471,106.9157471,1.9,0.141,5.6865,7.7524,21,0,11.429,107.0157471,1.5,2.263,5.95095,0.1,-0.1,0,1, -1.6, -1.5,0,1,1024,1024,1024,1024,0,0,0,0,336.4,-90,0,75,3.823,3.811,3.796,0,0,0,7.503,20,106.9157471,1.4,17,Joystick,
12410,2024-11-30 19:45:10,46.341127,-119.264769,1.4,1.71,105.2057471,106.9157471,1.9,0.224,5.63078,7.82918,21,0,11.429,107.0157471,1.5,2.263,5.95095,0.2,-0.1,0,1.1, -3.2, -1.7,0,1,1024,1024,1024,1024,0,0,0,0,336.4,-89.9,0,75,3.823,3.811,3.796,0,0,0,7.503,20,106.9157471,1.4,17,Joystick,
12500,2024-11-30 19:45:10,46.341127,-119.264769,1.4,1.71,105.2057471,106.9157471,1.9,0.224,5.63078,7.82918,21,0,11.429,107.0157471,1.5,2.263,5.95095,0.2,-0.1,0,1.2, -4.4, -1.8,0,1,1024,1024,1024,1024,0,0,0,0,336.3,-89.9,0,75,3.823,3.811,3.796,0,0,0,7.503,20,106.9157471,1.4,17,Joystick,
12610,2024-11-30 19:45:10,46.341128,-119.264769,1.4,1.71,105.2057471,106.9157471,1.9,0.361,5.55449,7.94038,22,0,11.429,107.0157471,1.5,2.263,5.95095,0.3,-0.2,0,1.3, -4.9, -1.7,0,1,1024,1024,1024,1024,0,0,0,0,336.3,-90,0,75,3.823,3.811,3.796,0,0,0,7.503,20,106.9157471,1.4,17,Joystick,
12700,2024-11-30 19:45:10,46.341128,-119.264769,1.4,1.71,105.2057471,106.9157471,1.8,0.447,5.55449,7.94038,22,0,11.429,107.0157471,1.5,2.263,5.95095,0.4,-0.2,0,1.2, -6, -1.8,0,1,1024,1024,1024,1024,0,0,0,0,336.2,-90,0,75,3.823,3.811,3.796,0,0,0,7.503,20,106.9157471,1.4,17,Joystick,
12800,2024-11-30 19:45:10,46.341129,-119.264769,1.4,1.71,105.2057471,106.9157471,1.9,0.539,5.47939,8.05159,23,0,11.429,107.0157471,1.5,2.263,5.95095,0.5,-0.2,0,1.1, -6.5, -1.6,0,1,1024,1024,1024,1024,0,0,0,0,336.2,-89.9,0,75,3.823,3.811,3.796,0,0,0,7.503,20,106.9157471,1.4,17,Joystick,
12900,2024-11-30 19:45:10,46.341129,-119.26477,1.4,1.7,105.2157471,106.9157471,1.9,0.632,5.42263,8.12836,23,0,11.429,107.0157471,1.5,2.263,5.95095,0.6,-0.2,0,0.9, -6.8, -1.4,0,1,1024,1024,1024,1024,0,0,0,0,336.1,-89.9,0,75,3.823,3.811,3.796,0,0,0,7.503,20,106.9157471,1.4,17,Joystick,
13000,2024-11-30 19:45:10,46.34113,-119.26477,1.3,1.6,105.2157471,106.8157471,1.9,0.854,5.348,8.23957,23,0,11.42,107.0157471,1.5,2.263,5.95095,0.8,-0.3,0,0.7, -7, -1.3,0,1,1024,1024,1024,1024,0,0,0,0,336.1,-90,0,75,3.823,3.811,3.796,0,0,0,7.414,20,106.8157471,1.3,17,Joystick,
13110,2024-11-30 19:45:11,46.34113,-119.26477,1.3,1.6,105.2157471,106.8157471,1.9,0.949,5.348,8.23957,23,0,11.42,107.0157471,1.5,2.263,5.95095,0.9,-0.3,0,0.3, -5.4, -1.1,0,1,1024,1024,1024,1024,0,0,0,0,336,-89.9,0,75,3.823,3.811,3.796,0,0,0,7.414,20,106.8157471,1.3,17,Joystick,
13200,2024-11-30 19:45:11,46.341131,-119.264771,1.3,1.59,105.2257471,106.8157471,1.8,1.044,5.21679,8.3747,23,0,11.42,107.0157471,1.5,2.263,5.95095,1,-0.3,0,0, -3.6, -0.9,0,1,1024,1024,1024,1024,0,0,0,0,335.9,-89.9,0,75,3.823,3.811,3.796,0,0,0,7.414,20,106.8157471,1.3,17,Joystick,
13300,2024-11-30 19:45:11,46.341132,-119.264771,1.3,1.59,105.2257471,106.8157471,1.8,1.044,5.14398,8.48591,23,0,11.42,107.0157471,1.5,2.263,5.95095,1,-0.3,0,359.8, -2.4, -0.7,0,1,1024,1024,1024,1024,0,0,0,0,335.7,-89.9,0,75,3.823,3.811,3.796,0,0,0,7.414,20,106.8157471,1.3,17,Joystick,
13410,2024-11-30 19:45:11,46.341133,-119.264772,1.3,1.58,105.2357471,106.8157471,1.8,1.044,5.01354,8.62104,23,0,11.42,107.0157471,1.5,2.263,5.95095,1,-0.3,0,359.5, -1.5, -0.4,0,1,1024,1024,1024,1024,0,0,0,0,335.5,-89.9,0,75,3.823,3.811,3.796,0,0,0,7.414,20,106.8157471,1.3,17,Joystick,
13500,2024-11-30 19:45:11,46.341134,-119.264772,1.3,1.58,105.2357471,106.8157471,1.9,1.044,4.94274,8.73225,23,0,11.42,107.0157471,1.5,2.263,5.95095,1,-0.3,0,359, 0, -0.1,0,1,1024,1024,1024,1024,0,0,0,0,335.3,-89.9,0,75,3.823,3.811,3.796,0,0,0,7.414,20,106.8157471,1.3,17,Joystick,
13610,2024-11-30 19:45:11,46.341134,-119.264772,1.3,1.58,105.2357471,106.8157471,1.8,1.044,4.94274,8.73225,23,0,11.42,107.0157471,1.5,2.263,5.95095,1,-0.3,0,358.8, 1.3, 0.1,0,1,1024,1024,1024,1024,0,0,0,0,335,-90,0,75,3.823,3.811,3.796,0,0,0,7.414,20,106.8157471,1.3,17,Joystick,
13700,2024-11-30 19:45:11,46.341135,-119.264773,1.4,1.67,105.2457471,106.9157471,1.8,1.044,4.81321,8.86738,23,0,11.42,107.0157471,1.5,2.263,5.95095,1,-0.3,0,358.7, 2.8, 0.5,0,1,1024,1024,1024,1024,0,0,0,0,334.8,-89.9,0,75,3.823,3.811,3.796,0,0,0,7.414,20,106.9157471,1.4,17,Joystick,
13800,2024-11-30 19:45:11,46.341136,-119.264773,1.4,1.67,105.2457471,106.9157471,1.9,0.922,4.74463,8.97858,23,0,11.42,107.0157471,1.5,2.263,5.95095,0.9,-0.2,0,358.5, 2.9, 0.6,0,1,1024,1024,1024,1024,0,0,0,0,334.5,-90,0,75,3.823,3.811,3.796,0,0,0,7.414,20,106.9157471,1.4,17,Joystick,
13900,2024-11-30 19:45:11,46.341137,-119.264774,1.4,1.66,105.2557471,106.9157471,1.9,0.927,4.61618,9.11372,23,0,11.42,107.0157471,1.5,2.263,5.95095,0.9,-0.2,-0.1,358.4, 2, 0.5,0,1,1024,1024,1024,1024,0,0,0,0,334.3,-89.9,0,75,3.823,3.811,3.796,0,0,0,7.414,20,106.9157471,1.4,17,Joystick,
14000,2024-11-30 19:45:11,46.341138,-119.264774,1.4,1.66,105.2557471,106.9157471,1.9,0.927,4.55007,9.22492,23,0,11.42,107.0157471,1.5,2.263,5.95095,0.9,-0.2,-0.1,358.3, 1.4, 0.4,0,1,1024,1024,1024,1024,0,0,0,0,334.1,-89.9,0,75,3.823,3.811,3.796,0,0,0,7.414,20,106.9157471,1.4,17,Joystick,
14110,2024-11-30 19:45:12,46.341139,-119.264775,1.4,1.65,105.2657471,106.9157471,1.9,0.831,4.42289,9.36006,23,0,11.42,107.0157471,1.5,2.263,5.95095,0.8,-0.2,-0.1,358.4, 1.4, 0.4,0,1,1024,1024,1024,1024,0,0,0,0,334,-89.9,0,75,3.823,3.811,3.796,0,0,0,7.414,20,106.9157471,1.4,17,Joystick,
14200,2024-11-30 19:45:12,46.34114,-119.264775,1.4,1.65,105.2657471,106.9157471,1.9,0.831,4.35952,9.47126,23,0,11.42,107.0157471,1.5,2.263,5.95095,0.8,-0.2,-0.1,358.3, 1.4, 0.4,0,1,1024,1024,1024,1024,0,0,0,0,333.9,-89.9,0,75,3.823,3.811,3.796,0,0,0,7.414,20,106.9157471,1.4,17,Joystick,
14300,2024-11-30 19:45:12,46.341141,-119.264775,1.4,1.64,105.2757471,106.9157471,1.9,0.831,4.2981,9.58247,23,0,11.42,107.0157471,1.5,2.263,5.95095,0.8,-0.2,-0.1,358.5, 1.2, 0.5,0,1,1024,1024,1024,1024,0,0,0,0,333.8,-89.9,0,75,3.823,3.811,3.796,0,0,0,7.414,20,106.9157471,1.4,17,Joystick,
14400,2024-11-30 19:45:12,46.341141,-119.264775,1.4,1.64,105.2757471,106.9157471,1.9,0.831,4.2981,9.58247,23,0,11.42,107.0157471,1.5,2.263,5.95095,0.8,-0.2,-0.1,358.5, 1, 0.5,0,1,1024,1024,1024,1024,0,0,0,0,333.7,-90,0,75,3.823,3.811,3.796,0,0,0,7.414,20,106.9157471,1.4,17,Joystick,
14500,2024-11-30 19:45:12,46.341142,-119.264776,1.4,1.64,105.2757471,106.9157471,1.9,0.806,4.17355,9.7176,23,0,11.42,107.0157471,1.5,2.263,5.95095,0.8,-0.1,0,358.6, 1.1, 0.5,0,1,1024,1024,1024,1024,0,0,0,0,333.7,-89.9,0,75,3.823,3.811,3.796,0,0,0,7.414,20,106.9157471,1.4,17,Joystick,
14610,2024-11-30 19:45:12,46.341143,-119.264776,1.4,1.63,105.2857471,106.9157471,1.9,0.707,4.11536,9.82881,23,0,11.42,107.0157471,1.5,2.263,5.95095,0.7,-0.1,0,358.8, 1.1, 0.4,0,1,1024,1024,1024,1024,0,0,0,0,333.6,-90,0,75,3.823,3.811,3.796,0,0,0,7.414,20,106.9157471,1.4,17,Joystick,
14700,2024-11-30 19:45:12,46.341144,-119.264776,1.4,1.63,105.2857471,106.9157471,1.9,0.707,4.05938,9.94001,23,0,11.42,107.0157471,1.5,2.263,5.95095,0.7,-0.1,0,358.8, 1.2, 0.2,0,1,1024,1024,1024,1024,0,0,0,0,333.6,-90,0,75,3.823,3.811,3.796,0,0,0,7.414,20,106.9157471,1.4,17,Joystick,
14800,2024-11-30 19:45:12,46.341145,-119.264777,1.4,1.62,105.2957471,106.9157471,1.9,0.707,3.9382,10.0751,22,0,11.42,107.0157471,1.5,2.263,5.95095,0.7,-0.1,0,358.9, 0.9, 0.1,0,1,1024,1024,1024,1024,0,0,0,0,333.5,-89.9,0,75,3.823,3.811,3.796,0,0,0,7.414,20,106.9157471,1.4,17,Joystick,
14900,2024-11-30 19:45:12,46.341145,-119.264777,1.4,1.62,105.2957471,106.9157471,1.9,0.707,3.9382,10.0751,22,0,11.42,107.0157471,1.5,2.263,5.95095,0.7,-0.1,0,358.9, 0.6, 0,0,1,1024,1024,1024,1024,0,0,0,0,333.5,-90,0,75,3.823,3.811,3.796,0,0,0,7.414,20,106.9157471,1.4,17,Joystick,
15000,2024-11-30 19:45:12,46.341146,-119.264777,1.5,1.72,105.2957471,107.0157471,2,0.707,3.88604,10.1864,22,0,11.402,107.0157471,1.5,2.263,5.95095,0.7,-0.1,0,359, 0.5, 0,0,1,1024,1024,1024,1024,0,0,0,0,333.5,-89.9,0,75,3.823,3.811,3.796,0,0,0,7.751,20,107.0157471,1.5,17,Joystick,
15110,2024-11-30 19:45:13,46.341147,-119.264777,1.5,1.71,105.3057471,107.0157471,2,0.707,3.8364,10.2976,22,0,11.402,107.0157471,1.5,2.263,5.95095,0.7,-0.1,0,359, 0.5, 0,0,1,1024,1024,1024,1024,0,0,0,0,333.5,-89.9,0,75,3.823,3.811,3.796,0,0,0,7.751,20,107.0157471,1.5,17,Joystick,
15200,2024-11-30 19:45:13,46.341147,-119.264778,1.5,1.71,105.3057471,107.0157471,2,0.707,3.76741,10.3743,22,0,11.402,107.0157471,1.5,2.263,5.95095,0.7,-0.1,0,358.9, 0.4, 0,0,1,1024,1024,1024,1024,0,0,0,0,333.5,-89.9,0,75,3.823,3.811,3.796,0,0,0,7.751,20,107.0157471,1.5,17,Joystick,
15310,2024-11-30 19:45:13,46.341148,-119.264778,1.5,1.71,105.3057471,107.0157471,2,0.707,3.71951,10.4855,22,0,11.402,107.0157471,1.5,2.263,5.95095,0.7,-0.1,0,359, 0.3, 0,0,1,1024,1024,1024,1024,0,0,0,0,333.4,-89.9,0,75,3.823,3.811,3.796,0,0,0,7.751,20,107.0157471,1.5,17,Joystick,
15410,2024-11-30 19:45:13,46.341149,-119.264778,1.5,1.7,105.3157471,107.0157471,2,0.707,3.67435,10.5967,22,0,11.402,107.0157471,1.5,2.263,5.95095,0.7,-0.1,0,359, 0.2, -0.2,0,1,1024,1024,1024,1024,0,0,0,0,333.4,-90,0,75,3.823,3.811,3.796,0,0,0,7.751,20,107.0157471,1.5,17,Joystick,
15500,2024-11-30 19:45:13,46.341149,-119.264778,1.5,1.7,105.3157471,107.0157471,2,0.608,3.67435,10.5967,22,0,11.402,107.0157471,1.5,2.263,5.95095,0.6,-0.1,0,359.2, 0.2, -0.3,0,1,1024,1024,1024,1024,0,0,0,0,333.4,-89.9,0,75,3.823,3.811,3.796,0,0,0,7.751,20,107.0157471,1.5,17,Joystick,
15610,2024-11-30 19:45:13,46.34115,-119.264778,1.5,1.7,105.3157471,107.0157471,2,0.608,3.63203,10.7079,22,0,11.402,107.0157471,1.5,2.263,5.95095,0.6,-0.1,0,359.2, 0.1, -0.3,0,1,1024,1024,1024,1024,0,0,0,0,333.4,-90,0,75,3.823,3.811,3.796,0,0,0,7.751,20,107.0157471,1.5,17,Joystick,
15700,2024-11-30 19:45:13,46.341151,-119.264778,1.5,1.7,105.3157471,107.0157471,2,0.608,3.59266,10.8192,22,0,11.402,107.0157471,1.5,2.263,5.95095,0.6,-0.1,0,359.2, -0.2, -0.2,0,1,1024,1024,1024,1024,0,0,0,0,333.4,-90,0,75,3.823,3.811,3.796,0,0,0,7.751,20,107.0157471,1.5,17,Joystick,
15810,2024-11-30 19:45:13,46.341151,-119.264778,1.5,1.7,105.3157471,107.0157471,2,0.608,3.59266,10.8192,22,0,11.402,107.0157471,1.5,2.263,5.95095,0.6,-0.1,0,359.4, -0.4, -0.2,0,1,1024,1024,1024,1024,0,0,0,0,333.4,-89.9,0,75,3.823,3.811,3.796,0,0,0,7.751,20,107.0157471,1.5,17,Joystick,
15910,2024-11-30 19:45:13,46.341152,-119.264779,1.5,1.69,105.3257471,107.0157471,2,0.608,3.48349,10.9543,22,0,11.402,107.0157471,1.5,2.263,5.95095,0.6,-0.1,0,359.4, -0.6, -0.3,0,1,1024,1024,1024,1024,0,0,0,0,333.4,-89.9,0,75,3.823,3.811,3.796,0,0,0,7.751,20,107.0157471,1.5,17,Joystick,
16000,2024-11-30 19:45:13,46.341153,-119.264779,1.5,1.68,105.3357471,107.0157471,2,0.707,3.4496,11.0655,23,0,11.402,107.0157471,1.5,2.263,5.95095,0.7,-0.1,0,359.4, -0.6, -0.4,0,1,1024,1024,1024,1024,0,0,0,0,333.4,-89.9,0,75,3.823,3.811,3.796,0,0,0,7.751,20,107.0157471,1.5,17,Joystick,
16110,2024-11-30 19:45:14,46.341153,-119.264779,1.5,1.68,105.3357471,107.0157471,2,0.707,3.4496,11.0655,23,0,11.402,107.0157471,1.5,2.263,5.95095,0.7,-0.1,0,359.5, -0.7, -0.6,0,1,1024,1024,1024,1024,0,0,0,0,333.4,-90,0,75,3.823,3.811,3.796,0,0,0,7.751,20,107.0157471,1.5,17,Joystick,
16200,2024-11-30 19:45:14,46.341154,-119.264779,1.5,1.68,105.3357471,107.0157471,2,0.707,3.419,11.1767,23,0,11.402,107.0157471,1.5,2.263,5.95095,0.7,-0.1,0,359.4, -0.5, -0.6,0,1,1024,1024,1024,1024,0,0,0,0,333.4,-89.9,0,75,3.823,3.811,3.796,0,0,0,7.751,20,107.0157471,1.5,17,Joystick,
16300,2024-11-30 19:45:14,46.341154,-119.264779,1.5,1.68,105.3357471,107.0157471,2,0.707,3.419,11.1767,23,0,11.402,107.0157471,1.5,2.263,5.95095,0.7,-0.1,0,359.5, -0.3, -0.6,0,1,1024,1024,1024,1024,0,0,0,0,333.4,-89.9,0,75,3.823,3.811,3.796,0,0,0,7.751,20,107.0157471,1.5,17,Joystick,
16410,2024-11-30 19:45:14,46.341155,-119.26478,1.5,1.67,105.3457471,107.0157471,2,0.707,3.31708,11.3118,23,0,11.402,107.0157471,1.5,2.263,5.95095,0.7,-0.1,0,359.3, -0.2, -0.6,0,1,1024,1024,1024,1024,0,0,0,0,333.4,-89.9,0,75,3.823,3.811,3.796,0,0,0,7.751,20,107.0157471,1.5,17,Joystick,
16500,2024-11-30 19:45:14,46.341156,-119.26478,1.5,1.67,105.3457471,107.0157471,2,0.707,3.29276,11.423,23,0,11.402,107.0157471,1.5,2.263,5.95095,0.7,-0.1,0,359.2, -0.3, -0.6,0,1,1024,1024,1024,1024,0,0,0,0,333.4,-89.9,0,75,3.823,3.811,3.796,0,0,0,7.751,20,107.0157471,1.5,17,Joystick,
16610,2024-11-30 19:45:14,46.341157,-119.26478,1.5,1.67,105.3457471,107.0157471,2,0.707,3.27204,11.5342,23,0,11.402,107.0157471,1.5,2.263,5.95095,0.7,-0.1,0,359.3, -0.3, -0.5,0,1,1024,1024,1024,1024,0,0,0,0,333.4,-89.9,0,75,3.823,3.811,3.796,0,0,0,7.751,20,107.0157471,1.5,17,Joystick,
16700,2024-11-30 19:45:14,46.341157,-119.26478,1.5,1.67,105.3457471,107.0157471,2,0.728,3.27204,11.5342,23,0,11.402,107.0157471,1.5,2.263,5.95095,0.7,-0.2,0,359.1, -0.3, -0.4,0,1,1024,1024,1024,1024,0,0,0,0,333.4,-90,0,75,3.823,3.811,3.796,0,0,0,7.751,20,107.0157471,1.5,17,Joystick,
16810,2024-11-30 19:45:14,46.341158,-119.26478,1.5,1.66,105.3557471,107.0157471,2,0.728,3.25499,11.6455,23,0,11.402,107.0157471,1.5,2.263,5.95095,0.7,-0.2,0,359.1, -0.2, -0.2,0,1,1024,1024,1024,1024,0,0,0,0,333.4,-89.9,0,75,3.823,3.811,3.796,0,0,0,7.751,20,107.0157471,1.5,17,Joystick,
16900,2024-11-30 19:45:14,46.341159,-119.264781,1.5,1.66,105.3557471,107.0157471,2,0.728,3.16531,11.7806,23,0,11.402,107.0157471,1.5,2.263,5.95095,0.7,-0.2,0,359.2, -0.3, 0,0,1,1024,1024,1024,1024,0,0,0,0,333.4,-89.9,0,75,3.823,3.811,3.796,0,0,0,7.751,20,107.0157471,1.5,17,Joystick,
17000,2024-11-30 19:45:14,46.341159,-119.264781,1.5,1.66,105.3557471,107.0157471,2,0.728,3.16531,11.7806,23,0,11.398,107.0157471,1.5,2.263,5.95095,0.7,-0.2,0,359.2, -0.4, 0.2,0,1,1024,1024,1024,1024,0,0,0,0,333.4,-90,0,74,3.823,3.811,3.796,0,0,0,7.559,20,107.0157471,1.5,17,Joystick,
17110,2024-11-30 19:45:15,46.34116,-119.264781,1.5,1.65,105.3657471,107.0157471,2,0.825,3.15552,11.8918,23,0,11.398,107.0157471,1.5,2.263,5.95095,0.8,-0.2,0,359.2, -0.3, 0.5,0,1,1024,1024,1024,1024,0,0,0,0,333.3,-89.9,0,74,3.823,3.811,3.796,0,0,0,7.559,20,107.0157471,1.5,17,Joystick,
17200,2024-11-30 19:45:15,46.34116,-119.264782,1.5,1.65,105.3657471,107.0157471,2,0.825,3.07895,11.9686,23,0,11.398,107.0157471,1.5,2.263,5.95095,0.8,-0.2,0,359.4, 0, 0.6,0,1,1024,1024,1024,1024,0,0,0,0,333.3,-89.9,0,74,3.823,3.811,3.796,0,0,0,7.559,20,107.0157471,1.5,17,Joystick,
17300,2024-11-30 19:45:15,46.341161,-119.264782,1.5,1.65,105.3657471,107.0157471,2,0.806,3.07292,12.0798,23,0,11.398,107.0157471,1.5,2.263,5.95095,0.8,-0.1,0,359.5, 0, 0.7,0,1,1024,1024,1024,1024,0,0,0,0,333.3,-89.9,0,74,3.823,3.811,3.796,0,0,0,7.559,20,107.0157471,1.5,17,Joystick,
17410,2024-11-30 19:45:15,46.341162,-119.264782,1.5,1.64,105.3757471,107.0157471,2,0.806,3.0709,12.191,23,0,11.398,107.0157471,1.5,2.263,5.95095,0.8,-0.1,0,359.5, 0.1, 0.7,0,1,1024,1024,1024,1024,0,0,0,0,333.3,-90,0,74,3.823,3.811,3.796,0,0,0,7.559,20,107.0157471,1.5,17,Joystick,
17500,2024-11-30 19:45:15,46.341163,-119.264782,1.5,1.64,105.3757471,107.0157471,2,0.806,3.07292,12.3022,23,0,11.398,107.0157471,1.5,2.263,5.95095,0.8,-0.1,0,359.4, 0.2, 0.5,0,1,1024,1024,1024,1024,0,0,0,0,333.3,-89.9,0,74,3.823,3.811,3.796,0,0,0,7.559,20,107.0157471,1.5,17,Joystick,
17610,2024-11-30 19:45:15,46.341163,-119.264782,1.4,1.54,105.3757471,106.9157471,1.9,0.806,3.07292,12.3022,23,0,11.398,107.0157471,1.5,2.263,5.95095,0.8,-0.1,0,359.5, 0.3, 0.2,0,1,1024,1024,1024,1024,0,0,0,0,333.3,-89.9,0,74,3.823,3.811,3.796,0,0,0,7.559,20,106.9157471,1.4,17,Joystick,
17700,2024-11-30 19:45:15,46.341164,-119.264783,1.4,1.53,105.3857471,106.9157471,1.9,0.806,3.00238,12.4373,23,0,11.398,107.0157471,1.5,2.263,5.95095,0.8,-0.1,0,359.3, 0.3, 0,0,1,1024,1024,1024,1024,0,0,0,0,333.3,-90,0,74,3.823,3.811,3.796,0,0,0,7.559,20,106.9157471,1.4,17,Joystick,
17800,2024-11-30 19:45:15,46.341165,-119.264783,1.4,1.53,105.3857471,106.9157471,1.9,0.812,3.01266,12.5485,23,0,11.398,107.0157471,1.5,2.263,5.95095,0.8,-0.1,0.1,359.2, 0.3, -0.1,0,1,1024,1024,1024,1024,0,0,0,0,333.3,-89.9,0,74,3.823,3.811,3.796,0,0,0,7.559,20,106.9157471,1.4,17,Joystick,
17910,2024-11-30 19:45:15,46.341166,-119.264783,1.4,1.52,105.3957471,106.9157471,1.9,0.806,3.02699,12.6597,23,0,11.398,107.0157471,1.5,2.263,5.95095,0.8,-0.1,0,359.1, 0.2, -0.2,0,1,1024,1024,1024,1024,0,0,0,0,333.3,-90,0,74,3.823,3.811,3.796,0,0,0,7.559,20,106.9157471,1.4,17,Joystick,
18000,2024-11-30 19:45:15,46.341166,-119.264783,1.4,1.52,105.3957471,106.9157471,1.9,0.806,3.02699,12.6597,22,0,11.398,107.0157471,1.5,2.263,5.95095,0.8,-0.1,0,359.1, 0.3, -0.3,0,1,1024,1024,1024,1024,0,0,0,0,333.3,-89.9,0,74,3.823,3.811,3.796,0,0,0,7.559,20,106.9157471,1.4,17,Joystick,
18110,2024-11-30 19:45:16,46.341167,-119.264783,1.4,1.52,105.3957471,106.9157471,1.9,0.806,3.04532,12.7709,22,0,11.398,107.0157471,1.5,2.263,5.95095,0.8,-0.1,0,359, 0.3, -0.3,0,1,1024,1024,1024,1024,0,0,0,0,333.3,-89.9,0,74,3.823,3.811,3.796,0,0,0,7.559,20,106.9157471,1.4,17,Joystick,
18200,2024-11-30 19:45:16,46.341168,-119.264784,1.4,1.51,105.4057471,106.9157471,1.9,0.707,2.99269,12.9061,22,0,11.398,107.0157471,1.5,2.263,5.95095,0.7,-0.1,0,359.1, 0.6, -0.4,0,1,1024,1024,1024,1024,0,0,0,0,333.3,-89.9,0,74,3.823,3.811,3.796,0,0,0,7.559,20,106.9157471,1.4,17,Joystick,
18300,2024-11-30 19:45:16,46.341168,-119.264784,1.4,1.51,105.4057471,106.9157471,1.8,0.707,2.99269,12.9061,22,0,11.398,107.0157471,1.5,2.263,5.95095,0.7,-0.1,0,359, 0.5, -0.5,0,1,1024,1024,1024,1024,0,0,0,0,333.3,-89.9,0,74,3.823,3.811,3.796,0,0,0,7.559,20,106.9157471,1.4,17,Joystick,
18410,2024-11-30 19:45:16,46.341169,-119.264784,1.4,1.51,105.4057471,106.9157471,1.8,0.707,3.01943,13.0173,23,0,11.398,107.0157471,1.5,2.263,5.95095,0.7,-0.1,0,359.2, 0.2, -0.6,0,1,1024,1024,1024,1024,0,0,0,0,333.3,-90,0,74,3.823,3.811,3.796,0,0,0,7.559,20,106.9157471,1.4,17,Joystick,
18500,2024-11-30 19:45:16,46.34117,-119.264784,1.4,1.51,105.4057471,106.9157471,1.8,0.707,3.04999,13.1285,23,0,11.398,107.0157471,1.5,2.263,5.95095,0.7,-0.1,0,359.2, 0.1, -0.6,0,1,1024,1024,1024,1024,0,0,0,0,333.3,-89.9,0,74,3.823,3.811,3.796,0,0,0,7.559,20,106.9157471,1.4,17,Joystick,
18610,2024-11-30 19:45:16,46.34117,-119.264785,1.4,1.5,105.4157471,106.9157471,1.8,0.728,2.97664,13.2052,23,0,11.398,107.0157471,1.5,2.263,5.95095,0.7,-0.2,0,359.4, 0.2, -0.5,0,1,1024,1024,1024,1024,0,0,0,0,333.3,-90,0,74,3.823,3.811,3.796,0,0,0,7.559,20,106.9157471,1.4,17,Joystick,
18700,2024-11-30 19:45:16,46.341171,-119.264785,1.4,1.5,105.4157471,106.9157471,1.8,0.728,3.01175,13.3165,23,0,11.398,107.0157471,1.5,2.263,5.95095,0.7,-0.2,0,359.4, 0.1, -0.5,0,1,1024,1024,1024,1024,0,0,0,0,333.3,-90,0,74,3.823,3.811,3.796,0,0,0,7.559,20,106.9157471,1.4,17,Joystick,
18800,2024-11-30 19:45:16,46.341172,-119.264785,1.3,1.39,105.4257471,106.8157471,1.8,0.728,3.05051,13.4277,23,0,11.398,107.0157471,1.5,2.263,5.95095,0.7,-0.2,0,359.6, 0.2, -0.2,0,1,1024,1024,1024,1024,0,0,0,0,333.3,-89.9,0,74,3.823,3.811,3.796,0,0,0,7.559,20,106.8157471,1.3,17,Joystick,
18910,2024-11-30 19:45:16,46.341173,-119.264786,1.3,1.39,105.4257471,106.8157471,1.8,0.728,3.02242,13.5628,23,0,11.398,107.0157471,1.5,2.263,5.95095,0.7,-0.2,0,359.6, 0.1, 0.1,0,1,1024,1024,1024,1024,0,0,0,0,333.3,-90,0,74,3.823,3.811,3.796,0,0,0,7.559,20,106.8157471,1.3,17,Joystick,
19000,2024-11-30 19:45:16,46.341173,-119.264786,1.3,1.39,105.4257471,106.8157471,1.8,0.728,3.02242,13.5628,23,0,11.392,107.0157471,1.5,2.263,5.95095,0.7,-0.2,0,359.7, 0.2, 0.3,0,1,1024,1024,1024,1024,0,0,0,0,333.3,-89.9,0,74,3.823,3.811,3.796,0,0,0,7.474,20,106.8157471,1.3,17,Joystick,
19110,2024-11-30 19:45:17,46.341174,-119.264786,1.3,1.38,105.4357471,106.8157471,1.8,0.825,3.06912,13.674,23,0,11.392,107.0157471,1.5,2.263,5.95095,0.8,-0.2,0,359.9, 0.1, 0.4,0,1,1024,1024,1024,1024,0,0,0,0,333.3,-90,0,74,3.823,3.811,3.796,0,0,0,7.474,20,106.8157471,1.3,17,Joystick,
19200,2024-11-30 19:45:17,46.341175,-119.264786,1.3,1.38,105.4357471,106.8157471,1.8,0.806,3.11908,13.7852,23,0,11.392,107.0157471,1.5,2.263,5.95095,0.8,-0.1,0,0, 0.2, 0.6,0,1,1024,1024,1024,1024,0,0,0,0,333.3,-89.9,0,74,3.823,3.811,3.796,0,0,0,7.474,20,106.8157471,1.3,17,Joystick,
19300,2024-11-30 19:45:17,46.341176,-119.264786,1.3,1.38,105.4357471,106.8157471,1.8,0.806,3.17215,13.8964,23,0,11.392,107.0157471,1.5,2.263,5.95095,0.8,-0.1,0,0, 0.5, 0.6,0,1,1024,1024,1024,1024,0,0,0,0,333.3,-90,0,74,3.823,3.811,3.796,0,0,0,7.474,20,106.8157471,1.3,17,Joystick,
19410,2024-11-30 19:45:17,46.341176,-119.264787,1.3,1.37,105.4457471,106.8157471,1.8,0.806,3.10549,13.9732,23,0,11.392,107.0157471,1.5,2.263,5.95095,0.8,-0.1,0,0.2, 0.8, 0.3,0,1,1024,1024,1024,1024,0,0,0,0,333.3,-90,0,74,3.823,3.811,3.796,0,0,0,7.474,20,106.8157471,1.3,17,Joystick,
19500,2024-11-30 19:45:17,46.341177,-119.264787,1.3,1.37,105.4457471,106.8157471,1.8,0.806,3.16271,14.0844,23,0,11.392,107.0157471,1.5,2.263,5.95095,0.8,-0.1,0,0.2, 0.9, 0.1,0,1,1024,1024,1024,1024,0,0,0,0,333.3,-90,0,74,3.823,3.811,3.796,0,0,0,7.474,20,106.8157471,1.3,17,Joystick,
19610,2024-11-30 19:45:17,46.341178,-119.264787,1.4,1.47,105.4457471,106.9157471,1.8,0.806,3.22274,14.1956,23,0,11.392,107.0157471,1.5,2.263,5.95095,0.8,-0.1,0,0.4, 1.1, 0.1,0,1,1024,1024,1024,1024,0,0,0,0,333.3,-89.9,0,74,3.823,3.811,3.796,0,0,0,7.474,20,106.9157471,1.4,17,Joystick,
19700,2024-11-30 19:45:17,46.341179,-119.264787,1.4,1.46,105.4557471,106.9157471,1.8,0.714,3.28545,14.3068,23,0,11.392,107.0157471,1.5,2.263,5.95095,0.7,-0.1,-0.1,0.5, 1, 0.1,0,1,1024,1024,1024,1024,0,0,0,0,333.3,-89.9,0,74,3.823,3.811,3.796,0,0,0,7.474,20,106.9157471,1.4,17,Joystick,
19800,2024-11-30 19:45:17,46.341179,-119.264787,1.4,1.46,105.4557471,106.9157471,1.8,0.714,3.28545,14.3068,23,0,11.392,107.0157471,1.5,2.263,5.95095,0.7,-0.1,-0.1,0.7, 1.1, 0.1,0,1,1024,1024,1024,1024,0,0,0,0,333.4,-89.9,0,74,3.823,3.811,3.796,0,0,0,7.474,20,106.9157471,1.4,17,Joystick,
19900,2024-11-30 19:45:17,46.34118,-119.264788,1.4,1.46,105.4557471,106.9157471,1.9,0.714,3.28943,14.4419,23,0,11.392,107.0157471,1.5,2.263,5.95095,0.7,-0.1,-0.1,0.8, 0.8, 0,0,1,1024,1024,1024,1024,0,0,0,0,333.4,-89.9,0,74,3.823,3.811,3.796,0,0,0,7.474,20,106.9157471,1.4,17,Joystick,
20000,2024-11-30 19:45:17,46.341181,-119.264788,1.4,1.45,105.4657471,106.9157471,1.9,0.714,3.35826,14.5531,23,0,11.373,107.0157471,1.5,2.263,5.95095,0.7,-0.1,-0.1,0.8, 0.5, -0.2,0,1,1024,1024,1024,1024,0,0,0,0,333.4,-89.9,0,74,3.823,3.811,3.796,0,0,0,7.747,20,106.9157471,1.4,17,Joystick,
20110,2024-11-30 19:45:18,46.341181,-119.264788,1.4,1.45,105.4657471,106.9157471,1.9,0.714,3.35826,14.5531,23,0,11.373,107.0157471,1.5,2.263,5.95095,0.7,-0.1,-0.1,0.9, 0.4, -0.2,0,1,1024,1024,1024,1024,0,0,0,0,333.5,-89.9,0,74,3.823,3.811,3.796,0,0,0,7.747,20,106.9157471,1.4,17,Joystick,
20200,2024-11-30 19:45:18,46.341182,-119.264789,1.4,1.44,105.4757471,106.9157471,1.9,0.714,3.37125,14.6883,23,0,11.373,107.0157471,1.5,2.263,5.95095,0.7,-0.1,-0.1,0.9, 0.2, -0.1,0,1,1024,1024,1024,1024,0,0,0,0,333.5,-90,0,74,3.823,3.811,3.796,0,0,0,7.747,20,106.9157471,1.4,17,Joystick,
20310,2024-11-30 19:45:18,46.341183,-119.264789,1.4,1.44,105.4757471,106.9157471,1.9,0.707,3.44563,14.7995,23,0,11.373,107.0157471,1.5,2.263,5.95095,0.7,-0.1,0,0.9, 0.1, 0,0,1,1024,1024,1024,1024,0,0,0,0,333.5,-89.9,0,74,3.823,3.811,3.796,0,0,0,7.747,20,106.9157471,1.4,17,Joystick,
20410,2024-11-30 19:45:18,46.341183,-119.264789,1.4,1.44,105.4757471,106.9157471,1.9,0.707,3.44563,14.7995,23,0,11.373,107.0157471,1.5,2.263,5.95095,0.7,-0.1,0,0.9, 0, 0.2,0,1,1024,1024,1024,1024,0,0,0,0,333.6,-90,0,74,3.823,3.811,3.796,0,0,0,7.747,20,106.9157471,1.4,17,Joystick,
20500,2024-11-30 19:45:18,46.341184,-119.264789,1.4,1.44,105.4757471,106.9157471,1.9,0.707,3.52195,14.9107,23,0,11.373,107.0157471,1.5,2.263,5.95095,0.7,-0.1,0,0.9, 0, 0.5,0,1,1024,1024,1024,1024,0,0,0,0,333.6,-89.9,0,74,3.823,3.811,3.796,0,0,0,7.747,20,106.9157471,1.4,17,Joystick,
20610,2024-11-30 19:45:18,46.341185,-119.26479,1.4,1.43,105.4857471,106.9157471,1.9,0.707,3.54648,15.0458,22,0,11.373,107.0157471,1.5,2.263,5.95095,0.7,-0.1,0,0.7, 0, 0.5,0,1,1024,1024,1024,1024,0,0,0,0,333.6,-90,0,74,3.823,3.811,3.796,0,0,0,7.747,20,106.9157471,1.4,17,Joystick,
20700,2024-11-30 19:45:18,46.341185,-119.26479,1.4,1.43,105.4857471,106.9157471,1.9,0.707,3.54648,15.0458,22,0,11.373,107.0157471,1.5,2.263,5.95095,0.7,-0.1,0,0.5, 0, 0.3,0,1,1024,1024,1024,1024,0,0,0,0,333.7,-89.9,0,74,3.823,3.811,3.796,0,0,0,7.747,20,106.9157471,1.4,17,Joystick,
20800,2024-11-30 19:45:18,46.341186,-119.26479,1.5,1.53,105.4857471,107.0157471,1.9,0.707,3.6275,15.157,22,0,11.373,107.0157471,1.5,2.263,5.95095,0.7,-0.1,0,0.3, 0, 0.3,0,1,1024,1024,1024,1024,0,0,0,0,333.7,-90,0,74,3.823,3.811,3.796,0,0,0,7.747,20,107.0157471,1.5,17,Joystick,
20910,2024-11-30 19:45:18,46.341187,-119.26479,1.5,1.52,105.4957471,107.0157471,1.9,0.707,3.71008,15.2682,22,0,11.373,107.0157471,1.5,2.263,5.95095,0.7,-0.1,0,0.2, -0.1, 0.2,0,1,1024,1024,1024,1024,0,0,0,0,333.7,-89.9,0,74,3.823,3.811,3.796,0,0,0,7.747,20,107.0157471,1.5,17,Joystick,
21000,2024-11-30 19:45:18,46.341188,-119.26479,1.5,1.52,105.4957471,107.0157471,1.9,0.707,3.79413,15.3794,22,0,11.373,107.0157471,1.5,2.263,5.95095,0.7,-0.1,0,0, -0.1, 0.1,0,1,1024,1024,1024,1024,0,0,0,0,333.7,-90,0,74,3.807,3.791,3.776,0,0,0,7.747,20,107.0157471,1.5,17,Joystick,
